City_ID,City,Country,Date,Lat,Lng,Overall Weather,Weather Description,Max Temp,Humidity,Cloudiness,Wind Speed,Rain Inches (last 3 hrs),Snow Inches (last 3 hrs)
0,Arraial Do Cabo,BR,2020-01-14 02:29:54,-22.97,-42.03,Clouds,overcast clouds,76.28,74,100,7.34,0.0,0.0
1,Mataura,NZ,2020-01-14 02:36:58,-46.19,168.86,Clouds,overcast clouds,62.01,66,98,10.0,0.0,0.0
2,Hermanus,ZA,2020-01-14 02:29:55,-34.42,19.23,Clouds,overcast clouds,72.0,87,86,8.99,0.0,0.0
3,Agirish,RU,2020-01-14 02:29:55,61.92,63.02,Clouds,overcast clouds,15.51,94,93,3.31,0.0,0.0
4,Samarai,PG,2020-01-14 02:29:55,-10.62,150.67,Clouds,overcast clouds,86.0,67,100,10.8,0.0,0.0
5,Biak,ID,2020-01-14 02:29:55,-0.91,122.88,Rain,light rain,82.49,74,55,2.77,0.63,0.0
6,Sistranda,NO,2020-01-14 02:29:56,63.73,8.83,Clouds,overcast clouds,39.2,60,85,25.28,0.0,0.0
7,Nanortalik,GL,2020-01-14 02:29:56,60.14,-45.24,Clouds,scattered clouds,20.21,60,36,8.59,0.0,0.0
8,Atuona,PF,2020-01-14 02:29:56,-9.8,-139.03,Rain,light rain,81.61,78,0,18.21,0.13,0.0
9,Albany,US,2020-01-14 02:37:00,42.6,-73.97,Drizzle,light intensity drizzle,37.99,86,90,1.95,0.0,0.0
10,Muyezerskiy,RU,2020-01-14 02:29:57,63.93,31.65,Clouds,overcast clouds,28.94,87,95,13.96,0.0,0.0
11,Kapaa,US,2020-01-14 02:37:00,22.08,-159.32,Haze,haze,78.8,78,90,24.16,0.0,0.0
12,Hargeysa,SO,2020-01-14 02:29:57,9.56,44.06,Clouds,overcast clouds,59.36,90,100,14.07,0.0,0.0
13,Barrow,US,2020-01-14 02:29:57,71.29,-156.79,Snow,light snow,10.4,78,90,14.99,0.0,0.0
14,Myrhorod,UA,2020-01-14 02:29:58,49.97,33.61,Clouds,overcast clouds,33.37,94,100,4.65,0.0,0.0
15,Rawson,AR,2020-01-14 02:36:44,-43.3,-65.1,Rain,light rain,70.11,63,100,16.71,0.13,0.0
16,Sampit,ID,2020-01-14 02:29:58,-2.53,112.95,Clouds,broken clouds,89.83,59,74,3.38,0.0,0.0
17,Port Elizabeth,ZA,2020-01-14 02:29:58,-33.92,25.57,Clouds,broken clouds,71.6,94,75,11.41,0.0,0.0
18,Manta,EC,2020-01-14 02:29:58,-0.95,-80.73,Clouds,scattered clouds,78.8,78,40,10.29,0.0,0.0
19,Ushuaia,AR,2020-01-14 02:37:02,-54.8,-68.3,Drizzle,heavy intensity drizzle,50.0,93,90,9.17,0.0,0.0
20,Prabumulih,ID,2020-01-14 02:29:59,-3.45,104.25,Rain,light rain,82.67,77,100,6.6,0.75,0.0
21,Jamestown,US,2020-01-14 02:32:23,42.1,-79.24,Clouds,overcast clouds,37.4,80,90,4.7,0.0,0.0
22,Vostok,RU,2020-01-14 02:29:59,46.49,135.88,Clouds,overcast clouds,3.33,86,100,2.98,0.0,0.0
23,Twin Falls,US,2020-01-14 02:30:00,42.56,-114.46,Rain,light rain,28.99,92,90,5.82,0.0,0.0
24,Talnakh,RU,2020-01-14 02:30:00,69.49,88.4,Snow,shower snow,8.6,84,75,33.55,0.0,0.0
25,East London,ZA,2020-01-14 02:37:04,-33.02,27.91,Rain,light rain,73.76,85,100,12.19,0.13,0.0
26,Lagunillas,VE,2020-01-14 02:30:01,10.13,-71.26,Clouds,scattered clouds,83.75,67,28,10.38,0.0,0.0
27,Vila Velha,BR,2020-01-14 02:27:57,-20.33,-40.29,Clouds,broken clouds,78.8,88,75,10.29,0.0,0.0
28,Montepuez,MZ,2020-01-14 02:30:01,-13.13,39.0,Rain,light rain,69.6,99,100,2.24,0.31,0.0
29,Paramonga,PE,2020-01-14 02:30:02,-10.67,-77.83,Clouds,broken clouds,68.04,91,78,9.62,0.0,0.0
30,Avarua,CK,2020-01-14 02:30:02,-21.21,-159.78,Clouds,broken clouds,84.2,70,75,17.22,0.0,0.0
31,Weinan,CN,2020-01-14 02:30:02,34.5,109.51,Clouds,few clouds,35.01,63,23,13.42,0.0,0.0
32,Hilo,US,2020-01-14 02:30:03,19.73,-155.09,Rain,light rain,75.99,100,79,4.0,0.56,0.0
33,Hualmay,PE,2020-01-14 02:30:03,-11.1,-77.61,Clouds,scattered clouds,67.24,85,45,2.57,0.0,0.0
34,Tuktoyaktuk,CA,2020-01-14 02:37:06,69.45,-133.04,Clear,clear sky,-11.2,69,5,10.29,0.0,0.0
35,Mount Gambier,AU,2020-01-14 02:30:04,-37.83,140.77,Clouds,few clouds,82.4,42,17,11.41,0.0,0.0
36,Puerto Ayora,EC,2020-01-14 02:30:04,-0.74,-90.35,Clouds,scattered clouds,77.0,80,27,1.01,0.0,0.0
37,Ahipara,NZ,2020-01-14 02:30:05,-35.17,173.17,Rain,light rain,65.17,86,90,6.64,0.25,0.0
38,Punta Arenas,CL,2020-01-14 02:37:07,-53.15,-70.92,Clouds,broken clouds,51.8,87,75,6.93,0.0,0.0
39,Butaritari,KI,2020-01-14 02:30:06,3.07,172.79,Rain,light rain,81.97,83,100,19.42,1.06,0.0
40,Aklavik,CA,2020-01-14 02:30:06,68.22,-135.01,Clear,clear sky,-7.6,63,5,13.87,0.0,0.0
41,Souillac,MU,2020-01-14 02:30:07,-20.52,57.52,Clouds,scattered clouds,80.6,88,40,8.05,0.0,0.0
42,Guerrero Negro,MX,2020-01-14 02:30:07,27.98,-114.06,Clouds,broken clouds,59.07,81,68,9.24,0.0,0.0
43,Mehamn,NO,2020-01-14 02:30:07,71.04,27.85,Snow,light snow,24.21,93,100,22.55,0.0,1.19
44,Ribeira Grande,PT,2020-01-14 02:30:07,38.52,-28.7,Rain,light rain,59.34,90,100,32.19,0.5,0.0
45,Bowen,AU,2020-01-14 02:30:08,-20.02,148.23,Clouds,scattered clouds,90.0,62,40,14.99,0.0,0.0
46,Castro,BR,2020-01-14 02:30:08,-24.79,-50.01,Clouds,overcast clouds,61.54,89,96,6.22,0.0,0.0
47,Victoria,HK,2020-01-14 02:30:08,22.29,114.16,Clear,clear sky,69.8,64,0,18.34,0.0,0.0
48,Lensk,RU,2020-01-14 02:30:08,60.73,114.93,Clouds,scattered clouds,-2.78,87,49,8.25,0.0,0.0
49,Makakilo City,US,2020-01-14 02:30:09,21.35,-158.09,Clouds,overcast clouds,78.8,73,90,17.22,0.0,0.0
50,Georgetown,MY,2020-01-14 02:30:09,5.41,100.34,Clouds,few clouds,84.2,65,20,10.29,0.0,0.0
51,Saint George,US,2020-01-14 02:30:09,37.1,-113.58,Clear,clear sky,42.8,48,1,4.7,0.0,0.0
52,Half Moon Bay,US,2020-01-14 02:37:10,37.46,-122.43,Clouds,overcast clouds,54.0,81,90,5.82,0.0,0.0
53,Vardo,NO,2020-01-14 02:30:10,70.37,31.11,Snow,light snow,28.0,93,100,28.77,0.0,0.88
54,Berlevag,NO,2020-01-14 02:30:10,70.86,29.09,Snow,light snow,27.46,88,100,25.48,0.0,0.63
55,Mar Del Plata,AR,2020-01-14 02:35:18,-38.0,-57.56,Rain,light rain,68.0,88,90,5.82,0.0,0.0
56,Gurupi,BR,2020-01-14 02:30:11,-11.73,-49.07,Clear,clear sky,74.8,84,0,1.34,0.0,0.0
57,Gizo,SB,2020-01-14 02:30:11,-8.1,156.84,Rain,light rain,80.42,83,100,11.21,2.88,0.0
58,Gerash,IR,2020-01-14 02:30:11,27.67,54.14,Clear,clear sky,37.4,93,0,2.86,0.0,0.0
59,Vestmannaeyjar,IS,2020-01-14 02:30:11,63.44,-20.27,Clouds,overcast clouds,37.29,59,100,42.64,0.0,0.0
60,Constitucion,CL,2020-01-14 02:33:43,-35.33,-72.42,Clouds,few clouds,55.36,93,19,11.25,0.0,0.0
61,Krasnorechenskiy,RU,2020-01-14 02:30:12,44.63,135.35,Clear,clear sky,9.36,68,0,4.9,0.0,0.0
62,Xingyi,CN,2020-01-14 02:30:12,24.19,102.82,Clouds,overcast clouds,55.87,80,86,4.47,0.0,0.0
63,Saint-Pierre,RE,2020-01-14 02:30:12,-21.34,55.48,Clouds,overcast clouds,77.0,69,86,6.93,0.0,0.0
64,Vaini,TO,2020-01-14 02:30:12,-21.2,-175.2,Clouds,few clouds,86.0,74,20,8.05,0.0,0.0
65,Torbay,CA,2020-01-14 02:30:13,47.67,-52.73,Clouds,broken clouds,15.01,66,75,16.11,0.0,0.0
66,New Norfolk,AU,2020-01-14 02:30:13,-42.78,147.06,Clouds,few clouds,79.0,52,20,12.75,0.0,0.0
67,Muros,ES,2020-01-14 02:30:13,42.78,-9.06,Rain,light rain,57.99,100,90,20.8,0.0,0.0
68,Chapais,CA,2020-01-14 02:30:13,49.78,-74.85,Clear,clear sky,-9.4,83,1,2.24,0.0,0.0
69,Karatau,KZ,2020-01-14 02:30:14,43.17,70.47,Clouds,overcast clouds,16.39,86,100,4.76,0.0,0.0
70,La Ronge,CA,2020-01-14 02:29:24,55.1,-105.28,Snow,light snow,-14.8,75,90,8.05,0.0,0.0
71,Khatanga,RU,2020-01-14 02:30:14,71.97,102.5,Clouds,few clouds,-18.65,88,13,7.34,0.0,0.0
72,Upernavik,GL,2020-01-14 02:30:14,72.79,-56.15,Clouds,overcast clouds,-4.58,86,100,6.58,0.0,0.0
73,Hobart,AU,2020-01-14 02:26:54,-42.88,147.33,Clouds,few clouds,79.0,52,20,12.75,0.0,0.0
74,San Cristobal,VE,2020-01-14 02:30:18,7.77,-72.22,Clouds,scattered clouds,77.0,73,40,2.24,0.0,0.0
75,Nara,JP,2020-01-14 02:29:21,34.69,135.8,Clouds,overcast clouds,53.01,39,100,2.24,0.0,0.0
76,San Javier,ES,2020-01-14 02:30:18,37.81,-0.84,Clouds,scattered clouds,48.2,100,30,2.24,0.0,0.0
77,Sao Jose Da Coroa Grande,BR,2020-01-14 02:30:18,-8.9,-35.15,Clear,clear sky,80.11,77,5,11.68,0.0,0.0
78,Busselton,AU,2020-01-14 02:37:15,-33.65,115.33,Clear,clear sky,84.99,28,0,11.79,0.0,0.0
79,Saint-Philippe,RE,2020-01-14 02:37:16,-21.36,55.77,Rain,light rain,77.0,69,100,6.93,0.19,0.0
80,Carnarvon,AU,2020-01-14 02:30:19,-24.87,113.63,Clouds,overcast clouds,78.93,82,100,11.97,0.0,0.0
81,Steinbach,DE,2020-01-14 02:30:19,50.17,8.57,Clouds,overcast clouds,44.6,100,90,4.7,0.0,0.0
82,Rikitea,PF,2020-01-14 02:30:20,-23.12,-134.97,Clear,clear sky,78.93,74,2,6.67,0.0,0.0
83,Segou,ML,2020-01-14 02:30:20,13.43,-6.22,Clear,clear sky,60.91,20,0,11.54,0.0,0.0
84,Dikson,RU,2020-01-14 02:37:17,73.51,80.55,Snow,light snow,3.7,92,100,18.61,0.0,0.31
85,Tasiilaq,GL,2020-01-14 02:30:20,65.61,-37.64,Clouds,overcast clouds,21.2,48,100,4.7,0.0,0.0
86,Ponta Do Sol,PT,2020-01-14 02:30:20,32.67,-17.1,Clouds,broken clouds,62.6,72,75,5.82,0.0,0.0
87,Flinders,AU,2020-01-14 02:29:11,-34.58,150.86,Clouds,scattered clouds,82.99,57,40,8.05,0.0,0.0
88,Port Lincoln,AU,2020-01-14 02:30:21,-34.73,135.87,Clear,clear sky,75.06,50,0,8.88,0.0,0.0
89,Saint-Paul,RE,2020-01-14 02:30:21,-21.01,55.27,Clouds,few clouds,77.0,78,20,6.93,0.0,0.0
90,Wattegama,LK,2020-01-14 02:30:21,6.8,81.48,Clouds,overcast clouds,69.8,100,100,3.36,0.0,0.0
91,Kaeo,NZ,2020-01-14 02:30:21,-35.1,173.78,Clouds,broken clouds,73.0,74,73,7.0,0.0,0.0
92,Haines Junction,CA,2020-01-14 02:30:22,60.75,-137.51,Clear,clear sky,-19.89,81,0,4.72,0.0,0.0
93,Tautira,PF,2020-01-14 02:30:22,-17.73,-149.15,Rain,light rain,82.4,74,75,3.36,0.0,0.0
94,Qasigiannguit,GL,2020-01-14 02:30:22,68.82,-51.19,Snow,light snow,6.8,65,100,17.22,0.0,0.13
95,Nikolskoye,RU,2020-01-14 02:30:23,59.7,30.79,Clouds,overcast clouds,37.4,88,90,11.18,0.0,0.0
96,Huarmey,PE,2020-01-14 02:30:23,-10.07,-78.15,Clouds,scattered clouds,68.47,80,38,0.67,0.0,0.0
97,Belen,TR,2020-01-14 02:26:07,36.49,36.22,Clear,clear sky,45.0,93,0,2.24,0.0,0.0
98,Kavieng,PG,2020-01-14 02:30:23,-2.57,150.8,Rain,light rain,83.37,79,100,26.19,1.88,0.0
99,Yellowknife,CA,2020-01-14 02:35:49,62.46,-114.35,Clear,clear sky,-36.4,65,5,4.7,0.0,0.0
100,Brasilia,BR,2020-01-14 02:26:45,-15.78,-47.93,Clouds,scattered clouds,77.0,69,40,4.7,0.0,0.0
101,Faya,SA,2020-01-14 02:30:24,18.39,42.45,Clear,clear sky,46.4,87,3,1.19,0.0,0.0
102,Walvis Bay,NA,2020-01-14 02:30:24,-22.96,14.51,Clouds,overcast clouds,66.0,88,97,5.82,0.0,0.0
103,Provideniya,RU,2020-01-14 02:37:21,64.38,-173.3,Clouds,broken clouds,23.0,67,75,15.66,0.0,0.0
104,Fortuna,US,2020-01-14 02:30:24,40.6,-124.16,Rain,moderate rain,51.8,93,90,6.93,0.0,0.0
105,Itoman,JP,2020-01-14 02:30:25,26.12,127.67,Clouds,few clouds,71.6,49,20,9.17,0.0,0.0
106,Bushehr,IR,2020-01-14 02:30:25,28.97,50.84,Clear,clear sky,59.0,66,0,2.98,0.0,0.0
107,Trairi,BR,2020-01-14 02:30:25,-3.28,-39.27,Clouds,broken clouds,74.8,89,55,1.7,0.0,0.0
108,Chingirlau,KZ,2020-01-14 02:30:26,51.09,54.08,Snow,light snow,23.97,96,100,9.93,0.0,1.19
109,Port Alfred,ZA,2020-01-14 02:37:22,-33.59,26.89,Clouds,overcast clouds,71.01,96,90,1.01,0.0,0.0
110,Whitianga,NZ,2020-01-14 02:30:26,-36.83,175.7,Rain,light rain,69.01,78,94,1.01,0.25,0.0
111,Bethel,US,2020-01-14 02:30:26,41.37,-73.41,Mist,mist,44.01,100,90,2.98,0.0,0.0
112,Alofi,NU,2020-01-14 02:30:27,-19.06,-169.92,Rain,light rain,81.01,81,78,13.24,1.81,0.0
113,Esperance,AU,2020-01-14 02:30:27,-33.87,121.9,Clouds,broken clouds,64.4,93,75,10.29,0.0,0.0
114,Cape Town,ZA,2020-01-14 02:30:01,-33.93,18.42,Clouds,broken clouds,69.01,94,68,6.93,0.0,0.0
115,Westport,US,2020-01-14 02:29:24,41.14,-73.36,Mist,mist,46.0,87,90,4.05,0.0,0.0
116,Bengkulu,ID,2020-01-14 02:30:28,-3.8,102.27,Clouds,overcast clouds,86.99,56,100,1.77,0.0,0.0
117,Cockburn Town,TC,2020-01-14 02:30:28,21.46,-71.14,Clouds,broken clouds,77.0,83,75,20.8,0.0,0.0
118,Geraldton,AU,2020-01-14 02:30:28,-28.77,114.6,Clear,clear sky,80.6,61,0,11.41,0.0,0.0
119,Krasnoselkup,RU,2020-01-14 02:30:28,65.7,82.47,Snow,light snow,10.24,92,100,21.23,0.0,0.5
120,Lamar,US,2020-01-14 02:30:29,33.67,-95.58,Clouds,overcast clouds,57.2,76,90,4.7,0.0,0.0
121,San Rafael,AR,2020-01-14 02:30:29,-34.62,-68.33,Rain,light rain,79.83,53,0,3.96,0.38,0.0
122,Sakaiminato,JP,2020-01-14 02:30:29,35.55,133.23,Clouds,broken clouds,46.4,65,75,6.93,0.0,0.0
123,Talaya,RU,2020-01-14 02:30:29,61.38,152.75,Clouds,overcast clouds,-20.85,97,99,2.86,0.0,0.0
124,Thompson,CA,2020-01-14 02:30:30,55.74,-97.86,Snow,light snow,-4.0,83,75,8.05,0.0,0.0
125,Sakakah,SA,2020-01-14 02:30:30,29.97,40.21,Clouds,scattered clouds,44.6,81,40,9.15,0.0,0.0
126,Katobu,ID,2020-01-14 02:30:30,-4.94,122.53,Clouds,broken clouds,90.81,52,72,3.74,0.0,0.0
127,Port Blair,IN,2020-01-14 02:30:30,11.67,92.75,Clouds,scattered clouds,79.52,75,32,9.82,0.0,0.0
128,Olinda,BR,2020-01-14 02:30:31,-8.01,-34.86,Clouds,scattered clouds,82.4,69,40,8.05,0.0,0.0
129,Bredasdorp,ZA,2020-01-14 02:30:31,-34.53,20.04,Rain,light rain,72.0,87,100,8.99,0.19,0.0
130,Airai,TL,2020-01-14 02:37:27,-8.93,125.41,Clouds,overcast clouds,81.25,59,100,4.29,0.0,0.0
131,The Valley,AI,2020-01-14 02:30:31,18.22,-63.06,Clouds,few clouds,77.0,69,20,20.8,0.0,0.0
132,Lorengau,PG,2020-01-14 02:30:32,-2.02,147.27,Rain,light rain,83.55,75,100,21.34,2.5,0.0
133,Klaksvik,FO,2020-01-14 02:30:32,62.23,-6.59,Rain,light rain,41.0,93,75,21.92,2.5,0.0
134,Bluff,NZ,2020-01-14 02:30:32,-46.6,168.33,Clouds,broken clouds,62.01,66,74,10.0,0.0,0.0
135,Saint Anthony,US,2020-01-14 02:30:28,45.02,-93.22,Rain,light rain,28.4,92,90,18.34,0.0,0.0
136,Bad Kissingen,DE,2020-01-14 02:30:32,50.2,10.08,Clouds,overcast clouds,43.0,91,100,3.83,0.0,0.0
137,Lebu,CL,2020-01-14 02:37:29,-37.62,-73.65,Clouds,few clouds,54.88,89,16,8.9,0.0,0.0
138,Boueni,YT,2020-01-14 02:30:33,-12.9,45.08,Clouds,few clouds,80.6,88,20,5.82,0.0,0.0
139,Ostrovnoy,RU,2020-01-14 02:30:33,68.05,39.51,Clouds,overcast clouds,19.81,93,100,14.7,0.0,0.0
140,Baruun-Urt,MN,2020-01-14 02:30:34,46.68,113.28,Clouds,few clouds,1.9,88,11,9.64,0.0,0.0
141,Antsohihy,MG,2020-01-14 02:30:34,-14.88,47.99,Clouds,broken clouds,74.28,94,54,2.89,0.0,0.0
142,Clyde River,CA,2020-01-14 02:30:34,70.47,-68.59,Clouds,overcast clouds,-5.8,76,90,16.11,0.0,0.0
143,Broken Hill,AU,2020-01-14 02:30:34,-31.95,141.43,Clear,clear sky,96.8,16,0,8.05,0.0,0.0
144,Kangaatsiaq,GL,2020-01-14 02:30:34,68.31,-53.46,Clouds,overcast clouds,13.93,73,100,11.21,0.0,0.0
145,Camabatela,AO,2020-01-14 02:30:35,-8.19,15.38,Clouds,overcast clouds,62.65,98,85,3.36,0.0,0.0
146,Serenje,ZM,2020-01-14 02:30:35,-13.23,30.24,Rain,light rain,63.3,99,100,2.24,0.63,0.0
147,Luderitz,NA,2020-01-14 02:30:35,-26.65,15.16,Clear,clear sky,66.2,82,0,18.34,0.0,0.0
148,Fare,PF,2020-01-14 02:30:35,-16.7,-151.02,Rain,moderate rain,80.67,77,100,20.65,6.0,0.0
149,Tottori,JP,2020-01-14 02:30:36,35.5,134.23,Clouds,broken clouds,46.4,61,75,9.17,0.0,0.0
150,Mahebourg,MU,2020-01-14 02:30:36,-20.41,57.7,Clouds,scattered clouds,80.6,88,40,8.05,0.0,0.0
151,Te Anau,NZ,2020-01-14 02:30:36,-45.42,167.72,Clouds,scattered clouds,56.86,53,32,2.57,0.0,0.0
152,Katsuura,JP,2020-01-14 02:30:36,35.13,140.3,Clouds,few clouds,57.0,66,20,6.93,0.0,0.0
153,Severobaykalsk,RU,2020-01-14 02:30:36,55.65,109.32,Clouds,overcast clouds,8.33,90,100,9.84,0.0,0.0
154,Auki,SB,2020-01-14 02:30:37,-8.77,160.7,Clouds,overcast clouds,85.51,76,100,27.96,0.0,0.0
155,Beyneu,KZ,2020-01-14 02:30:37,45.32,55.2,Clouds,overcast clouds,32.63,85,100,16.4,0.0,0.0
156,Leningradskiy,RU,2020-01-14 02:30:37,69.38,178.42,Clouds,overcast clouds,-8.97,92,98,3.53,0.0,0.0
157,Avera,US,2020-01-14 02:30:37,33.19,-82.53,Rain,heavy intensity rain,69.01,95,75,6.53,0.0,0.0
158,Sao Felix Do Xingu,BR,2020-01-14 02:30:38,-6.64,-51.99,Rain,light rain,70.34,95,0,0.6,0.81,0.0
159,Bahadurganj,IN,2020-01-14 02:30:38,26.27,87.82,Clear,clear sky,64.87,57,0,1.92,0.0,0.0
160,Deputatskiy,RU,2020-01-14 02:30:38,69.3,139.9,Clear,clear sky,-24.81,66,0,3.4,0.0,0.0
161,Kaitangata,NZ,2020-01-14 02:30:38,-46.28,169.85,Clouds,few clouds,59.0,75,24,11.01,0.0,0.0
162,Vieques,PR,2020-01-14 02:30:39,18.43,-65.83,Rain,light rain,78.8,83,40,12.75,0.0,0.0
163,Port-Cartier,CA,2020-01-14 02:30:39,50.03,-66.87,Clouds,broken clouds,5.0,64,75,8.05,0.0,0.0
164,Los Llanos De Aridane,ES,2020-01-14 02:30:39,28.66,-17.92,Clear,clear sky,64.4,31,0,5.82,0.0,0.0
165,Zhigansk,RU,2020-01-14 02:30:39,66.77,123.37,Snow,light snow,-14.58,95,100,14.32,0.0,0.13
166,Narsaq,GL,2020-01-14 02:30:40,60.92,-46.05,Clouds,broken clouds,10.4,55,80,2.24,0.0,0.0
167,Portobelo,PA,2020-01-14 02:30:40,9.55,-79.65,Rain,light rain,79.0,78,76,4.7,0.38,0.0
168,Marsa Matruh,EG,2020-01-14 02:30:40,31.35,27.25,Clouds,overcast clouds,48.2,87,100,6.4,0.0,0.0
169,Inuvik,CA,2020-01-14 02:30:40,68.35,-133.72,Clear,clear sky,-7.6,63,5,13.87,0.0,0.0
170,Mamboma,SL,2020-01-14 02:30:41,8.08,-11.68,Clear,clear sky,69.33,83,0,1.97,0.0,0.0
171,Coquimbo,CL,2020-01-14 02:30:41,-29.95,-71.34,Clouds,scattered clouds,60.8,87,40,6.93,0.0,0.0
172,Cherskiy,RU,2020-01-14 02:30:41,68.75,161.3,Clouds,overcast clouds,-26.25,82,90,12.12,0.0,0.0
173,Callaway,US,2020-01-14 02:30:41,30.15,-85.57,Clouds,broken clouds,69.01,94,75,6.93,0.0,0.0
174,Evanston,US,2020-01-14 02:30:42,42.04,-87.69,Clouds,overcast clouds,34.0,74,90,6.93,0.0,0.0
175,Bandar-E Lengeh,IR,2020-01-14 02:30:42,26.56,54.88,Clear,clear sky,55.4,54,0,9.17,0.0,0.0
176,Illapel,CL,2020-01-14 02:30:42,-31.63,-71.17,Clear,clear sky,55.56,78,0,2.59,0.0,0.0
177,San Patricio,MX,2020-01-14 02:30:43,19.22,-104.7,Clouds,scattered clouds,80.6,78,40,4.83,0.0,0.0
178,Calamar,CO,2020-01-14 02:30:43,10.25,-74.91,Clouds,overcast clouds,78.8,83,95,5.82,0.0,0.0
179,Bandarbeyla,SO,2020-01-14 02:30:43,9.49,50.81,Clouds,scattered clouds,75.78,76,38,20.98,0.0,0.0
180,Hasaki,JP,2020-01-14 02:37:39,35.73,140.83,Clouds,few clouds,55.0,71,20,3.36,0.0,0.0
181,Wewak,PG,2020-01-14 02:30:43,-3.55,143.63,Rain,light rain,82.26,72,98,13.22,0.25,0.0
182,Barranca,PE,2020-01-14 02:30:44,-10.75,-77.77,Clouds,broken clouds,69.13,92,78,11.18,0.0,0.0
183,Buala,SB,2020-01-14 02:30:44,-8.14,159.59,Clouds,overcast clouds,87.87,68,89,13.53,0.0,0.0
184,Parabel,RU,2020-01-14 02:30:44,58.7,81.48,Clouds,overcast clouds,12.22,88,100,12.95,0.0,0.0
185,Hithadhoo,MV,2020-01-14 02:30:45,-0.6,73.08,Clouds,overcast clouds,82.51,71,98,10.11,0.0,0.0
186,Boundiali,CI,2020-01-14 02:30:45,9.52,-6.49,Clear,clear sky,66.83,23,0,6.26,0.0,0.0
187,Hamilton,US,2020-01-14 02:30:45,39.18,-84.53,Clear,clear sky,42.01,93,1,4.03,0.0,0.0
188,Lormi,IN,2020-01-14 02:30:45,22.28,81.73,Clear,clear sky,65.48,40,0,0.92,0.0,0.0
189,Otjimbingwe,NA,2020-01-14 02:30:46,-22.35,16.13,Clear,clear sky,72.52,51,10,0.67,0.0,0.0
190,Pingzhuang,CN,2020-01-14 02:30:46,42.04,119.29,Clear,clear sky,10.83,55,0,1.66,0.0,0.0
191,Cascais,PT,2020-01-14 02:30:46,38.7,-9.42,Clouds,scattered clouds,57.99,93,40,2.24,0.0,0.0
192,Urengoy,RU,2020-01-14 02:30:46,65.97,78.37,Snow,light snow,14.38,94,100,13.67,0.0,0.44
193,Neyshabur,IR,2020-01-14 02:30:47,36.21,58.8,Clouds,overcast clouds,25.63,59,91,5.17,0.0,0.0
194,Omboue,GA,2020-01-14 02:30:47,-1.57,9.26,Rain,light rain,75.61,94,45,1.59,0.13,0.0
195,Yablonovo,RU,2020-01-14 02:30:47,50.85,37.36,Clouds,overcast clouds,32.0,94,90,6.71,0.0,0.0
196,Pevek,RU,2020-01-14 02:30:47,69.7,170.31,Clouds,overcast clouds,-7.44,97,100,3.24,0.0,0.0
197,Melilla,ES,2020-01-14 02:30:48,35.29,-2.94,Clouds,overcast clouds,51.8,87,100,4.7,0.0,0.0
198,Ancud,CL,2020-01-14 02:30:48,-41.87,-73.82,Clouds,scattered clouds,55.4,87,40,3.36,0.0,0.0
199,College,US,2020-01-14 02:30:48,64.86,-147.8,Snow,light snow,0.0,84,90,1.74,0.0,0.0
200,Renqiu,CN,2020-01-14 02:30:48,38.7,116.09,Clear,clear sky,28.69,29,0,1.01,0.0,0.0
201,Kahului,US,2020-01-14 02:30:49,20.89,-156.47,Clouds,broken clouds,77.0,69,75,11.41,0.0,0.0
202,Pisco,PE,2020-01-14 02:30:49,-13.7,-76.22,Clouds,broken clouds,69.8,83,75,16.11,0.0,0.0
203,Jasper,US,2020-01-14 02:30:22,37.2,-94.35,Clouds,broken clouds,51.01,76,75,12.75,0.0,0.0
204,Along,IN,2020-01-14 02:30:49,28.17,94.77,Clear,clear sky,58.51,52,0,2.89,0.0,0.0
205,Tiznit,MA,2020-01-14 02:30:50,29.58,-9.5,Clouds,broken clouds,49.26,40,80,6.44,0.0,0.0
206,Menomonie,US,2020-01-14 02:30:50,44.88,-91.92,Snow,light snow,30.2,85,90,10.29,0.0,0.0
207,Saquena,PE,2020-01-14 02:30:50,-4.67,-73.52,Clouds,overcast clouds,71.78,97,98,1.92,0.0,0.0
208,Kralendijk,BQ,2020-01-14 02:30:10,12.15,-68.27,Rain,light rain,77.0,83,0,14.99,0.44,0.0
209,Qaanaaq,GL,2020-01-14 02:37:46,77.48,-69.36,Clear,clear sky,-7.55,43,0,4.16,0.0,0.0
210,Caravelas,BR,2020-01-14 02:30:51,-17.71,-39.25,Clear,clear sky,79.11,85,2,13.87,0.0,0.0
211,Camacha,PT,2020-01-14 02:30:51,33.08,-16.33,Clouds,scattered clouds,62.6,72,40,9.17,0.0,0.0
212,Norman Wells,CA,2020-01-14 02:30:51,65.28,-126.83,Clear,clear sky,-18.4,75,5,9.17,0.0,0.0
213,Necochea,AR,2020-01-14 02:26:07,-38.55,-58.74,Clouds,overcast clouds,66.99,82,91,5.99,0.0,0.0
214,Ourossogui,SN,2020-01-14 02:30:52,15.61,-13.32,Clear,clear sky,63.1,20,0,12.55,0.0,0.0
215,El Retorno,CO,2020-01-14 02:30:52,2.33,-72.63,Clouds,broken clouds,75.47,67,59,2.82,0.0,0.0
216,Bagdarin,RU,2020-01-14 02:30:52,54.43,113.6,Clouds,broken clouds,-7.78,80,55,0.67,0.0,0.0
217,Port Hardy,CA,2020-01-14 02:30:52,50.7,-127.42,Snow,light snow,24.8,73,90,4.7,0.0,0.0
218,Sao Filipe,CV,2020-01-14 02:30:53,14.9,-24.5,Clouds,scattered clouds,69.46,74,47,17.94,0.0,0.0
219,Kirakira,SB,2020-01-14 02:30:53,-10.45,161.92,Rain,light rain,83.37,81,100,10.45,1.5,0.0
220,Bathsheba,BB,2020-01-14 02:30:53,13.22,-59.52,Rain,light intensity shower rain,71.6,88,75,17.22,1.5,0.0
221,Mogzon,RU,2020-01-14 02:30:53,51.74,111.96,Clouds,few clouds,-2.81,91,15,3.71,0.0,0.0
222,Alekseyevsk,RU,2020-01-14 02:30:54,57.84,108.35,Clouds,overcast clouds,-0.92,95,98,4.68,0.0,0.0
223,Kasangulu,CD,2020-01-14 02:30:54,-4.59,15.17,Clouds,few clouds,78.8,78,20,1.03,0.0,0.0
224,Ixtapa,MX,2020-01-14 02:30:14,20.7,-105.2,Clouds,scattered clouds,77.0,83,40,4.18,0.0,0.0
225,Ujkigyos,HU,2020-01-14 02:30:55,46.58,21.03,Mist,mist,28.4,100,90,4.7,0.0,0.0
226,Saskylakh,RU,2020-01-14 02:30:55,71.92,114.08,Clear,clear sky,-13.59,94,0,9.82,0.0,0.0
227,El Corozal,HN,2020-01-14 02:30:55,15.07,-88.62,Rain,light rain,63.91,99,11,1.7,0.25,0.0
228,Shagonar,RU,2020-01-14 02:30:55,51.53,92.8,Clouds,overcast clouds,-16.55,94,100,3.65,0.0,0.0
229,Agadez,NE,2020-01-14 02:30:56,19.75,10.25,Clear,clear sky,54.09,40,0,17.83,0.0,0.0
230,Hervey Bay,AU,2020-01-14 02:30:56,-25.3,152.85,Clouds,broken clouds,89.6,52,75,11.41,0.0,0.0
231,Egvekinot,RU,2020-01-14 02:30:56,66.32,-179.17,Clouds,broken clouds,-13.22,97,65,3.58,0.0,0.0
232,Bambous Virieux,MU,2020-01-14 02:30:56,-20.34,57.76,Clouds,scattered clouds,80.6,88,40,8.05,0.0,0.0
233,Tulagi,SB,2020-01-14 02:30:57,-9.1,160.15,Clouds,scattered clouds,87.8,74,40,13.87,0.0,0.0
234,Lincoln,US,2020-01-14 02:30:25,40.8,-96.67,Mist,mist,35.01,100,90,3.36,0.0,0.0
235,Nabire,ID,2020-01-14 02:30:57,-3.37,135.48,Clouds,broken clouds,88.95,57,77,4.05,0.0,0.0
236,Ribas Do Rio Pardo,BR,2020-01-14 02:30:57,-20.44,-53.76,Clouds,overcast clouds,72.36,93,87,5.53,0.0,0.0
237,Umm Lajj,SA,2020-01-14 02:30:57,25.02,37.27,Clouds,scattered clouds,58.66,34,25,14.65,0.0,0.0
238,Coihaique,CL,2020-01-14 02:37:52,-45.58,-72.07,Clouds,overcast clouds,60.8,59,90,2.24,0.0,0.0
239,Pangnirtung,CA,2020-01-14 02:30:58,66.15,-65.71,Clouds,overcast clouds,-25.82,95,100,4.9,0.0,0.0
240,Orbetello,IT,2020-01-14 02:28:24,42.44,11.22,Clouds,few clouds,43.0,100,16,5.82,0.0,0.0
241,Chuy,UY,2020-01-14 02:37:53,-33.7,-53.46,Clear,clear sky,66.0,76,0,11.12,0.0,0.0
242,Kupang,ID,2020-01-14 02:30:59,-10.17,123.58,Clouds,scattered clouds,86.0,66,40,4.7,0.0,0.0
243,Longyearbyen,SJ,2020-01-14 02:30:59,78.22,15.64,Clouds,few clouds,5.0,50,20,9.17,0.0,0.0
244,Quesnel,CA,2020-01-14 02:30:27,53.0,-122.5,Clear,clear sky,-22.0,74,1,1.23,0.0,0.0
245,Port-Gentil,GA,2020-01-14 02:31:00,-0.72,8.78,Rain,light rain,81.5,82,100,10.71,0.13,0.0
246,Danielskuil,ZA,2020-01-14 02:31:00,-28.19,23.54,Clear,clear sky,65.95,61,0,16.28,0.0,0.0
247,Chumikan,RU,2020-01-14 02:31:00,54.72,135.31,Clear,clear sky,1.44,71,0,7.0,0.0,0.0
248,San Quintin,MX,2020-01-14 02:31:00,30.48,-115.95,Clear,clear sky,56.14,85,0,10.94,0.0,0.0
249,Bulawayo,ZW,2020-01-14 02:31:01,-20.15,28.58,Clear,clear sky,65.41,81,8,9.91,0.0,0.0
250,Dunn,US,2020-01-14 02:31:01,44.95,-91.88,Snow,light snow,30.2,85,90,10.29,0.0,0.0
251,Tabou,CI,2020-01-14 02:31:01,4.42,-7.35,Clear,clear sky,76.17,94,0,1.21,0.0,0.0
252,Kodiak,US,2020-01-14 02:26:08,57.79,-152.41,Clouds,few clouds,35.01,74,11,5.82,0.0,0.0
253,Tacoronte,ES,2020-01-14 02:31:02,28.48,-16.41,Clear,clear sky,69.01,25,0,11.41,0.0,0.0
254,Rochegda,RU,2020-01-14 02:31:02,62.8,43.25,Snow,light snow,27.28,95,100,8.25,0.0,0.31
255,Kloulklubed,PW,2020-01-14 02:31:02,7.04,134.26,Clouds,broken clouds,84.2,79,75,12.75,0.0,0.0
256,Galbshtadt,RU,2020-01-14 02:31:03,53.23,78.98,Clouds,overcast clouds,5.09,90,88,13.44,0.0,0.0
257,Iqaluit,CA,2020-01-14 02:31:03,63.75,-68.51,Snow,light snow,-2.2,58,90,12.75,0.0,0.0
258,Paldiski,EE,2020-01-14 02:31:03,59.36,24.05,Clouds,broken clouds,39.99,86,75,11.41,0.0,0.0
259,Lavrentiya,RU,2020-01-14 02:31:04,65.58,-171.0,Clear,clear sky,2.66,75,0,15.5,0.0,0.0
260,Kashi,CN,2020-01-14 02:31:04,39.45,75.98,Mist,mist,24.8,85,75,4.47,0.0,0.0
261,Aswan,EG,2020-01-14 02:31:04,24.09,32.91,Clouds,overcast clouds,53.6,65,100,10.29,0.0,0.0
262,Siparia,TT,2020-01-14 02:31:04,10.13,-61.5,Clouds,few clouds,77.0,83,20,12.37,0.0,0.0
263,Itarema,BR,2020-01-14 02:31:05,-2.92,-39.92,Clouds,overcast clouds,77.5,84,100,2.13,0.0,0.0
264,Yumen,CN,2020-01-14 02:31:05,40.28,97.2,Clouds,overcast clouds,18.99,49,97,26.98,0.0,0.0
265,Smithers,CA,2020-01-14 02:31:05,54.78,-127.17,Clear,clear sky,-20.2,75,5,2.24,0.0,0.0
266,Kavaratti,IN,2020-01-14 02:31:05,10.57,72.64,Clear,clear sky,81.81,67,4,11.41,0.0,0.0
267,Gisborne,NZ,2020-01-14 02:31:06,-38.65,178.0,Rain,light rain,64.0,60,100,8.01,0.25,0.0
268,Tuatapere,NZ,2020-01-14 02:31:06,-46.13,167.68,Clouds,scattered clouds,62.01,66,38,10.0,0.0,0.0
269,Ginda,IN,2020-01-14 02:31:06,30.69,78.49,Clouds,scattered clouds,45.14,85,49,2.3,0.0,0.0
270,Wagga Wagga,AU,2020-01-14 02:31:06,-35.12,147.37,Clouds,overcast clouds,91.99,25,89,6.93,0.0,0.0
271,Tahta,EG,2020-01-14 02:31:07,26.77,31.5,Clear,clear sky,48.2,57,3,5.82,0.0,0.0
272,Merauke,ID,2020-01-14 02:31:07,-8.47,140.33,Rain,light rain,86.58,67,23,8.95,1.0,0.0
273,Verkhoyansk,RU,2020-01-14 02:31:07,67.54,133.38,Clouds,broken clouds,-29.02,83,71,1.39,0.0,0.0
274,Aquiraz,BR,2020-01-14 02:31:07,-3.9,-38.39,Clouds,scattered clouds,80.6,78,40,5.82,0.0,0.0
275,Dingle,PH,2020-01-14 02:31:08,11.0,122.67,Clouds,few clouds,81.66,73,19,10.13,0.0,0.0
276,Fengcheng,CN,2020-01-14 02:31:08,40.45,124.07,Clear,clear sky,15.49,61,0,5.26,0.0,0.0
277,Koumac,NC,2020-01-14 02:31:08,-20.57,164.28,Rain,light rain,86.5,51,32,8.84,0.19,0.0
278,Eureka,US,2020-01-14 02:28:00,40.8,-124.16,Rain,light rain,51.8,81,90,12.75,0.19,0.0
279,Adrar,MR,2020-01-14 02:31:09,20.5,-10.07,Clear,clear sky,52.39,32,8,12.33,0.0,0.0
280,Ullal,IN,2020-01-14 02:27:04,12.8,74.85,Mist,mist,73.4,83,7,3.36,0.0,0.0
281,Griffith,US,2020-01-14 02:31:09,41.53,-87.42,Clouds,overcast clouds,35.01,86,90,5.48,0.0,0.0
282,Sarkand,KZ,2020-01-14 02:31:10,45.41,79.92,Snow,light snow,21.34,97,100,2.98,0.0,0.38
283,Rantepao,ID,2020-01-14 02:31:10,-2.97,119.9,Clouds,broken clouds,84.56,53,67,0.92,0.0,0.0
284,Pacific Grove,US,2020-01-14 02:31:10,36.62,-121.92,Clear,clear sky,52.0,71,1,8.77,0.0,0.0
285,Kozan,TR,2020-01-14 02:31:10,37.46,35.82,Clear,clear sky,45.0,93,0,3.36,0.0,0.0
286,Ewa Beach,US,2020-01-14 02:27:14,21.32,-158.01,Clouds,overcast clouds,78.8,65,90,14.99,0.0,0.0
287,Rio Grande,BR,2020-01-14 02:27:09,-32.03,-52.1,Clear,clear sky,70.0,75,0,14.76,0.0,0.0
288,Vao,NC,2020-01-14 02:31:11,-22.67,167.48,Clouds,broken clouds,77.63,81,67,19.82,0.0,0.0
289,Lima,PE,2020-01-14 02:29:36,-12.04,-77.03,Clouds,scattered clouds,69.8,88,40,10.29,0.0,0.0
290,Eghezee,BE,2020-01-14 02:31:12,50.59,4.9,Drizzle,light intensity drizzle,52.0,81,100,24.16,0.0,0.0
291,Mali,GN,2020-01-14 02:31:12,12.08,-12.3,Clear,clear sky,65.89,20,0,5.73,0.0,0.0
292,Cabo San Lucas,MX,2020-01-14 02:29:41,22.89,-109.91,Clear,clear sky,70.0,64,5,5.82,0.0,0.0
293,Cidreira,BR,2020-01-14 02:31:12,-30.18,-50.21,Clouds,broken clouds,74.26,71,55,18.48,0.0,0.0
294,Grand Gaube,MU,2020-01-14 02:31:13,-20.01,57.66,Clouds,scattered clouds,80.6,88,40,8.05,0.0,0.0
295,Hambantota,LK,2020-01-14 02:31:13,6.12,81.12,Clouds,overcast clouds,69.8,100,100,3.36,0.0,0.0
296,Portland,US,2020-01-14 02:36:38,45.52,-122.68,Rain,light rain,39.99,86,90,5.82,0.0,0.0
297,Yurimaguas,PE,2020-01-14 02:31:13,-5.9,-76.08,Clouds,scattered clouds,71.8,78,46,1.52,0.0,0.0
298,Haukipudas,FI,2020-01-14 02:31:14,65.17,25.5,Clouds,broken clouds,33.8,86,76,11.41,0.0,0.0
299,Chipata,ZM,2020-01-14 02:31:14,-13.63,32.65,Rain,light rain,66.47,96,100,1.07,1.56,0.0
300,Nevelsk,RU,2020-01-14 02:31:14,46.67,141.86,Clouds,overcast clouds,10.4,85,100,2.24,0.0,0.0
301,Jalu,LY,2020-01-14 02:31:14,29.03,21.55,Rain,light rain,55.71,75,100,16.33,0.25,0.0
302,Nagayo,JP,2020-01-14 02:31:15,32.82,129.89,Rain,light rain,48.2,66,75,6.93,0.25,0.0
303,Murdochville,CA,2020-01-14 02:31:15,48.96,-65.5,Snow,light snow,5.61,95,100,3.4,0.0,0.38
304,Nuevo Ideal,MX,2020-01-14 02:31:15,24.89,-105.07,Clouds,overcast clouds,53.19,49,99,1.61,0.0,0.0
305,Tilichiki,RU,2020-01-14 02:31:16,60.47,166.1,Snow,snow,29.43,97,100,18.77,0.0,2.75
306,Gloucester,GB,2020-01-14 02:31:16,51.87,-2.24,Rain,moderate rain,46.0,81,75,13.87,0.0,0.0
307,Hobyo,SO,2020-01-14 02:31:16,5.35,48.53,Rain,light rain,76.68,77,35,18.14,0.13,0.0
308,Cowra,AU,2020-01-14 02:31:17,-33.83,148.68,Clouds,broken clouds,75.99,47,75,1.01,0.0,0.0
309,Ust-Omchug,RU,2020-01-14 02:31:17,61.15,149.63,Clouds,broken clouds,-27.87,95,72,4.38,0.0,0.0
310,Petropavlovsk-Kamchatskiy,RU,2020-01-14 02:31:17,53.05,158.65,Clouds,broken clouds,30.2,92,75,4.47,0.0,0.0
311,Tarata,BO,2020-01-14 02:31:17,-17.62,-66.02,Clouds,broken clouds,66.2,55,75,8.05,0.0,0.0
312,Tiksi,RU,2020-01-14 02:31:18,71.69,128.87,Clouds,overcast clouds,-14.85,89,98,4.76,0.0,0.0
313,Wloclawek,PL,2020-01-14 02:31:18,52.65,19.07,Clouds,overcast clouds,36.0,94,89,8.84,0.0,0.0
314,Poum,NC,2020-01-14 02:31:18,-20.23,164.02,Rain,light rain,80.33,80,61,23.8,0.13,0.0
315,Jamame,SO,2020-01-14 02:31:18,0.07,42.75,Clouds,broken clouds,82.13,80,78,26.6,0.0,0.0
316,Ngunguru,NZ,2020-01-14 02:31:18,-35.62,174.5,Clouds,overcast clouds,73.0,74,100,7.0,0.0,0.0
317,Kouroussa,GN,2020-01-14 02:31:19,10.65,-9.88,Clear,clear sky,66.24,21,0,5.19,0.0,0.0
318,Namibe,AO,2020-01-14 02:31:19,-15.2,12.15,Clouds,overcast clouds,73.87,75,100,10.65,0.0,0.0
319,Kysyl-Syr,RU,2020-01-14 02:31:19,63.9,122.76,Snow,light snow,-4.41,99,99,3.18,0.0,0.19
320,Bumba,CD,2020-01-14 02:31:19,2.18,22.47,Clouds,broken clouds,71.37,59,78,2.01,0.0,0.0
321,Saldanha,ZA,2020-01-14 02:38:12,-33.01,17.94,Clouds,scattered clouds,65.52,96,49,9.62,0.0,0.0
322,Longkou,CN,2020-01-14 02:31:20,37.65,120.33,Clouds,overcast clouds,29.12,54,89,10.78,0.0,0.0
323,Beringovskiy,RU,2020-01-14 02:31:20,63.05,179.32,Clear,clear sky,23.95,83,0,13.89,0.0,0.0
324,Novobirilyussy,RU,2020-01-14 02:31:20,56.95,90.67,Clouds,scattered clouds,4.93,95,35,5.79,0.0,0.0
325,Road Town,VG,2020-01-14 02:28:47,18.42,-64.62,Clouds,few clouds,78.8,65,20,17.22,0.0,0.0
326,Sorland,NO,2020-01-14 02:31:21,67.67,12.69,Snow,light snow,37.31,91,100,18.3,0.0,0.81
327,Puerto Narino,CO,2020-01-14 02:31:21,-3.77,-70.38,Clouds,broken clouds,77.0,100,75,3.36,0.0,0.0
328,Burnie,AU,2020-01-14 02:31:21,-41.07,145.92,Clear,clear sky,77.0,51,0,11.01,0.0,0.0
329,Trinidad,BO,2020-01-14 02:31:21,-14.83,-64.9,Clouds,scattered clouds,75.29,88,49,3.36,0.0,0.0
330,Sitka,US,2020-01-14 02:31:22,57.05,-135.33,Clouds,few clouds,19.4,44,20,9.17,0.0,0.0
331,Deniliquin,AU,2020-01-14 02:31:22,-35.53,144.97,Clouds,overcast clouds,84.09,35,100,11.01,0.0,0.0
332,Birnin Kebbi,NG,2020-01-14 02:31:22,12.45,4.2,Clear,clear sky,71.49,16,3,11.9,0.0,0.0
333,Nanakuli,US,2020-01-14 02:31:22,21.39,-158.15,Clouds,overcast clouds,78.8,73,90,17.22,0.0,0.0
334,Guaymas,MX,2020-01-14 02:31:23,27.93,-110.9,Clouds,few clouds,66.2,82,20,8.05,0.0,0.0
335,Berbera,SO,2020-01-14 02:31:23,10.44,45.01,Rain,light rain,75.29,79,19,8.05,0.69,0.0
336,Leirvik,NO,2020-01-14 02:31:23,59.78,5.5,Rain,moderate rain,42.8,93,100,28.86,11.81,0.0
337,Kieta,PG,2020-01-14 02:31:23,-6.22,155.63,Rain,light rain,83.79,74,100,2.01,1.94,0.0
338,Tazovskiy,RU,2020-01-14 02:31:24,67.47,78.7,Snow,light snow,13.24,93,100,12.8,0.0,0.38
339,Port Macquarie,AU,2020-01-14 02:31:24,-31.43,152.92,Clouds,broken clouds,84.0,54,75,12.75,0.0,0.0
340,Okha,RU,2020-01-14 02:31:24,53.57,142.95,Clear,clear sky,-4.09,87,0,16.13,0.0,0.0
341,Ust-Nera,RU,2020-01-14 02:31:24,64.57,143.2,Clouds,overcast clouds,-30.1,96,100,3.2,0.0,0.0
342,Ambilobe,MG,2020-01-14 02:31:25,-13.2,49.05,Clouds,overcast clouds,74.21,88,100,3.56,0.0,0.0
343,Moerai,PF,2020-01-14 02:31:25,-22.43,-151.33,Clouds,overcast clouds,76.91,78,100,14.65,0.0,0.0
344,Sisimiut,GL,2020-01-14 02:31:25,66.94,-53.67,Snow,light snow,-1.48,81,85,7.65,0.0,0.13
345,Touros,BR,2020-01-14 02:31:25,-5.2,-35.46,Clouds,broken clouds,78.8,83,65,6.93,0.0,0.0
346,Chara,RU,2020-01-14 02:31:25,56.91,118.26,Clear,clear sky,-12.87,82,0,1.28,0.0,0.0
347,Okhotsk,RU,2020-01-14 02:31:26,59.38,143.3,Clear,clear sky,-16.51,72,0,8.77,0.0,0.0
348,Nantucket,US,2020-01-14 02:26:56,41.28,-70.1,Mist,mist,42.01,93,90,4.7,0.0,0.0
349,Acari,PE,2020-01-14 02:31:26,-15.43,-74.62,Clouds,overcast clouds,64.22,86,94,3.38,0.0,0.0
350,Aksu,CN,2020-01-14 02:31:26,41.12,80.26,Clouds,overcast clouds,25.74,84,100,3.56,0.0,0.0
351,Namatanai,PG,2020-01-14 02:31:27,-3.67,152.43,Rain,light rain,84.43,74,96,15.93,2.13,0.0
352,Lagoa,PT,2020-01-14 02:31:27,39.05,-27.98,Rain,light rain,63.1,82,78,37.94,0.38,0.0
353,Husavik,IS,2020-01-14 02:31:27,66.04,-17.34,Snow,light snow,32.0,95,90,21.92,0.0,0.0
354,Ukiah,US,2020-01-14 02:31:27,39.15,-123.21,Rain,light rain,53.01,93,90,6.93,0.0,0.0
355,Watsa,CD,2020-01-14 02:31:28,3.04,29.54,Clouds,broken clouds,60.3,47,67,1.68,0.0,0.0
356,Nalut,LY,2020-01-14 02:31:28,30.33,10.85,Clear,clear sky,39.87,94,7,9.1,0.0,0.0
357,Ilulissat,GL,2020-01-14 02:31:28,69.22,-51.1,Snow,light snow,6.8,65,100,17.22,0.0,0.13
358,Leh,IN,2020-01-14 02:31:28,34.17,77.58,Snow,light snow,-1.21,86,93,6.71,0.0,0.31
359,Waycross,US,2020-01-14 02:28:49,31.21,-82.35,Clear,clear sky,71.6,83,1,4.7,0.0,0.0
360,Hofn,IS,2020-01-14 02:31:29,64.25,-15.21,Snow,snow,34.5,93,100,51.7,0.0,3.31
361,Bartlesville,US,2020-01-14 02:31:29,36.75,-95.98,Clouds,overcast clouds,53.6,81,90,11.41,0.0,0.0
362,Stony Plain,CA,2020-01-14 02:30:27,53.53,-114.0,Clear,clear sky,-20.0,67,1,8.05,0.0,0.0
363,Farah,AF,2020-01-14 02:31:29,32.5,62.5,Clouds,overcast clouds,32.9,79,93,1.68,0.0,0.0
364,Cabedelo,BR,2020-01-14 02:31:30,-6.98,-34.83,Clouds,scattered clouds,80.6,74,40,9.17,0.0,0.0
365,Palmer,US,2020-01-14 02:31:30,42.16,-72.33,Mist,mist,39.0,86,90,1.68,0.0,0.0
366,Erenhot,CN,2020-01-14 02:31:30,43.65,111.98,Clouds,broken clouds,8.13,74,67,10.07,0.0,0.0
367,Salalah,OM,2020-01-14 02:31:30,17.02,54.09,Clouds,overcast clouds,64.4,27,85,13.87,0.0,0.0
368,Puerto Del Rosario,ES,2020-01-14 02:31:31,28.5,-13.86,Clear,clear sky,60.8,67,0,1.12,0.0,0.0
369,Ucluelet,CA,2020-01-14 02:30:51,48.93,-125.55,Snow,light snow,34.0,77,90,2.24,0.0,0.0
370,Darhan,MN,2020-01-14 02:31:31,49.49,105.92,Clear,clear sky,-7.29,87,0,3.22,0.0,0.0
371,Casper,US,2020-01-14 02:31:14,42.87,-106.31,Clear,clear sky,19.4,62,1,16.11,0.0,0.0
372,Kostomuksha,RU,2020-01-14 02:31:31,64.57,30.58,Clouds,overcast clouds,30.25,85,97,12.8,0.0,0.0
373,Ransang,PH,2020-01-14 02:31:32,8.96,117.58,Clear,clear sky,80.83,68,0,7.4,0.0,0.0
374,Faanui,PF,2020-01-14 02:31:32,-16.48,-151.75,Rain,moderate rain,80.73,76,99,19.46,5.56,0.0
375,Bernay,FR,2020-01-14 02:31:32,49.17,0.67,Clouds,overcast clouds,51.8,81,90,23.04,0.0,0.0
376,Abu Dhabi,AE,2020-01-14 02:27:53,24.47,54.37,Clouds,scattered clouds,60.8,77,40,5.82,0.0,0.0
377,Zinder,NE,2020-01-14 02:31:32,13.81,8.99,Clouds,overcast clouds,70.59,22,100,12.71,0.0,0.0
378,Suihua,CN,2020-01-14 02:31:33,46.64,127.0,Clouds,few clouds,-0.96,90,21,4.12,0.0,0.0
379,Svetlogorsk,BY,2020-01-14 02:31:33,52.63,29.73,Rain,light rain,34.92,97,100,7.81,0.13,0.0
380,Kazachinskoye,RU,2020-01-14 02:31:33,57.7,93.28,Snow,light snow,11.46,95,93,5.53,0.0,0.19
381,Broome,US,2020-01-14 02:31:33,42.25,-75.83,Clouds,overcast clouds,39.99,93,90,8.05,0.0,0.0
382,Tual,ID,2020-01-14 02:31:34,-5.67,132.75,Rain,light rain,83.28,77,100,10.18,0.88,0.0
383,Paamiut,GL,2020-01-14 02:31:34,61.99,-49.67,Clouds,broken clouds,14.07,57,53,20.62,0.0,0.0
384,Terrasini,IT,2020-01-14 02:31:34,38.15,13.08,Clear,clear sky,50.0,75,0,4.7,0.0,0.0
385,Aksha,RU,2020-01-14 02:31:35,50.28,113.29,Clear,clear sky,-3.06,87,0,1.45,0.0,0.0
386,Abha,SA,2020-01-14 02:31:35,18.22,42.51,Clouds,few clouds,46.4,87,19,0.54,0.0,0.0
387,Kruisfontein,ZA,2020-01-14 02:31:35,-34.0,24.73,Clouds,scattered clouds,65.71,94,26,4.23,0.0,0.0
388,Naushki,RU,2020-01-14 02:31:35,50.38,106.11,Clear,clear sky,-7.92,85,0,3.04,0.0,0.0
389,Evreux,FR,2020-01-14 02:31:35,49.02,1.15,Clouds,overcast clouds,51.01,81,90,23.04,0.0,0.0
390,Santa Rosa,PH,2020-01-14 02:31:36,14.31,121.11,Clouds,broken clouds,84.0,69,75,6.93,0.0,0.0
391,Kalabo,ZM,2020-01-14 02:31:36,-14.97,22.68,Clouds,overcast clouds,66.65,90,100,1.3,0.0,0.0
392,Pareora,NZ,2020-01-14 02:31:36,-44.49,171.21,Clear,clear sky,66.0,53,0,8.01,0.0,0.0
393,Teguise,ES,2020-01-14 02:31:37,29.06,-13.56,Clear,clear sky,59.0,82,0,8.05,0.0,0.0
394,Shwebo,MM,2020-01-14 02:31:37,22.57,95.7,Clear,clear sky,69.58,63,0,4.43,0.0,0.0
395,Kano,NG,2020-01-14 02:31:37,12.0,8.52,Clouds,scattered clouds,66.2,52,28,2.39,0.0,0.0
396,Rio Do Sul,BR,2020-01-14 02:31:37,-27.21,-49.64,Clouds,few clouds,75.0,91,16,1.59,0.0,0.0
397,Bilma,NE,2020-01-14 02:31:38,18.69,12.92,Clouds,broken clouds,59.72,35,66,13.91,0.0,0.0
398,La Libertad,EC,2020-01-14 02:31:38,-2.23,-80.9,Clouds,overcast clouds,77.0,83,100,10.29,0.0,0.0
399,Port Keats,AU,2020-01-14 02:31:38,-14.25,129.55,Clouds,overcast clouds,88.72,66,92,5.59,0.0,0.0
400,Tapiramuta,BR,2020-01-14 02:31:39,-11.85,-40.79,Clear,clear sky,67.03,88,0,2.44,0.0,0.0
401,Angoche,MZ,2020-01-14 02:31:39,-16.23,39.91,Clouds,overcast clouds,75.94,93,99,4.07,0.0,0.0
402,Sayyan,YE,2020-01-14 02:31:39,15.17,44.32,Clouds,few clouds,44.51,88,13,1.14,0.0,0.0
403,Santa Vitoria Do Palmar,BR,2020-01-14 02:31:39,-33.52,-53.37,Clear,clear sky,66.0,76,0,11.12,0.0,0.0
404,San-Pedro,CI,2020-01-14 02:31:39,4.75,-6.64,Clear,clear sky,81.1,86,5,4.45,0.0,0.0
405,Gombe,NG,2020-01-14 02:31:40,10.29,11.17,Clear,clear sky,71.76,26,0,8.55,0.0,0.0
406,Kutum,SD,2020-01-14 02:31:40,14.2,24.67,Clear,clear sky,51.33,30,0,5.82,0.0,0.0
407,Sao Joao Da Barra,BR,2020-01-14 02:31:40,-21.64,-41.05,Rain,light rain,75.65,91,100,8.37,0.25,0.0
408,Kandalaksha,RU,2020-01-14 02:31:41,67.16,32.41,Snow,light snow,25.93,92,100,7.29,0.0,0.25
409,Oktyabrskiy,RU,2020-01-14 02:31:41,54.48,53.47,Clouds,overcast clouds,24.58,94,96,8.99,0.0,0.0
410,San Lorenzo,PY,2020-01-14 02:31:41,-25.33,-57.53,Clouds,overcast clouds,75.2,100,90,3.36,0.0,0.0
411,Mozarlandia,BR,2020-01-14 02:31:41,-14.74,-50.57,Clear,clear sky,75.54,79,3,3.53,0.0,0.0
412,Lompoc,US,2020-01-14 02:31:42,34.64,-120.46,Clear,clear sky,55.0,87,1,17.22,0.0,0.0
413,Lichuan,CN,2020-01-14 02:31:42,30.3,108.85,Clouds,overcast clouds,36.84,86,100,5.28,0.0,0.0
414,Yaan,NG,2020-01-14 02:31:42,7.38,8.57,Clear,clear sky,78.15,78,0,7.83,0.0,0.0
415,Fuerte Olimpo,PY,2020-01-14 02:31:43,-21.04,-57.87,Clouds,overcast clouds,78.57,80,91,4.5,0.0,0.0
416,Russell,US,2020-01-14 02:31:43,32.35,-85.2,Rain,light rain,68.0,100,90,5.01,0.0,0.0
417,Waingapu,ID,2020-01-14 02:31:43,-9.66,120.26,Clouds,overcast clouds,81.93,74,100,8.46,0.0,0.0
418,Mitu,CO,2020-01-14 02:31:43,1.2,-70.17,Clouds,overcast clouds,73.22,89,100,1.83,0.0,0.0
419,Verkhnyaya Inta,RU,2020-01-14 02:31:44,65.98,60.31,Clouds,few clouds,-10.84,99,11,5.66,0.0,0.0
420,Roald,NO,2020-01-14 02:31:44,62.58,6.13,Clouds,overcast clouds,48.0,48,100,14.99,0.0,0.0
421,Sioux Lookout,CA,2020-01-14 02:31:44,50.1,-91.92,Clouds,overcast clouds,17.6,78,90,5.82,0.0,0.0
422,Murillo,CO,2020-01-14 02:31:45,4.87,-75.17,Clouds,few clouds,77.0,65,20,5.82,0.0,0.0
423,High Level,CA,2020-01-14 02:31:45,58.52,-117.14,Snow,light snow,-18.4,68,90,10.29,0.0,0.0
424,Chokurdakh,RU,2020-01-14 02:31:45,70.63,147.92,Clouds,overcast clouds,-16.38,97,99,3.58,0.0,0.0
425,Buin,CL,2020-01-14 02:31:45,-33.73,-70.75,Clear,clear sky,73.4,35,0,9.17,0.0,0.0
426,Makueni,KE,2020-01-14 02:31:45,-1.8,37.62,Rain,light rain,64.58,92,100,1.79,0.5,0.0
427,Nouadhibou,MR,2020-01-14 02:31:46,20.93,-17.03,Clouds,scattered clouds,60.8,63,49,11.41,0.0,0.0
428,Mount Isa,AU,2020-01-14 02:31:46,-20.73,139.5,Clear,clear sky,100.4,31,0,9.17,0.0,0.0
429,Mogadishu,SO,2020-01-14 02:31:46,2.04,45.34,Clouds,few clouds,80.35,79,19,26.11,0.0,0.0
430,Port Moresby,PG,2020-01-14 02:31:46,-9.44,147.18,Clouds,overcast clouds,77.0,94,90,11.41,0.0,0.0
431,Tezu,IN,2020-01-14 02:31:47,27.92,96.17,Clear,clear sky,64.08,44,0,2.3,0.0,0.0
432,Sinnamary,GF,2020-01-14 02:31:47,5.38,-52.95,Rain,light rain,79.43,83,77,14.34,1.69,0.0
433,Belaya Gora,RU,2020-01-14 02:31:47,68.53,146.42,Clouds,overcast clouds,-16.78,92,100,2.98,0.0,0.0
434,Waterloo,CA,2020-01-14 02:28:13,43.47,-80.52,Clouds,overcast clouds,36.0,93,90,2.24,0.0,0.0
435,Santa Catalina,PH,2020-01-14 02:31:47,9.33,122.86,Clouds,few clouds,84.2,74,20,13.87,0.0,0.0
436,Candolim,IN,2020-01-14 02:31:48,15.52,73.76,Mist,mist,71.6,94,40,2.24,0.0,0.0
437,Sibu,MY,2020-01-14 02:31:48,2.3,111.82,Rain,light rain,75.2,94,75,8.05,0.0,0.0
438,Nam Phong,TH,2020-01-14 02:31:48,16.7,102.86,Clear,clear sky,77.0,65,0,3.36,0.0,0.0
439,Tessalit,ML,2020-01-14 02:31:48,20.2,1.01,Clear,clear sky,47.43,36,0,11.92,0.0,0.0
440,Conde,BR,2020-01-14 02:31:49,-7.26,-34.91,Clouds,scattered clouds,80.6,74,40,9.17,0.0,0.0
441,Gat,IL,2020-01-14 02:31:49,31.61,34.76,Clouds,scattered clouds,54.0,87,40,3.36,0.0,0.0
442,Matina,CR,2020-01-14 02:31:49,10.08,-83.29,Rain,light rain,73.99,94,89,1.01,2.44,0.0
443,Takoradi,GH,2020-01-14 02:31:49,4.88,-1.76,Clear,clear sky,77.38,92,0,2.44,0.0,0.0
444,Soyo,AO,2020-01-14 02:31:50,-6.13,12.37,Rain,light rain,78.08,89,87,4.09,0.44,0.0
445,Acarau,BR,2020-01-14 02:31:50,-2.89,-40.12,Clouds,overcast clouds,77.5,84,100,2.13,0.0,0.0
446,Sidi Ali,DZ,2020-01-14 02:31:50,36.1,0.42,Clouds,broken clouds,43.12,76,82,3.33,0.0,0.0
447,Aykhal,RU,2020-01-14 02:31:50,66.0,111.5,Clouds,overcast clouds,-9.4,83,100,4.47,0.0,0.0
448,Leninskiy,RU,2020-01-14 02:31:50,54.28,37.46,Clouds,broken clouds,27.88,95,78,12.35,0.0,0.0
449,Alyangula,AU,2020-01-14 02:31:51,-13.85,136.42,Clouds,scattered clouds,89.6,62,40,6.93,0.0,0.0
450,Ocampo,MX,2020-01-14 02:31:51,21.65,-101.5,Clear,clear sky,55.02,59,1,7.31,0.0,0.0
451,Dembi Dolo,ET,2020-01-14 02:31:51,8.53,34.8,Clouds,few clouds,57.85,58,20,2.86,0.0,0.0
452,Ballina,AU,2020-01-14 02:31:51,-28.87,153.57,Clouds,broken clouds,78.8,100,75,10.29,0.0,0.0
453,Marataizes,BR,2020-01-14 02:31:52,-21.04,-40.82,Rain,light rain,73.99,96,100,4.27,1.94,0.0
454,Romny,UA,2020-01-14 02:31:52,50.75,33.47,Clouds,overcast clouds,32.97,95,100,4.74,0.0,0.0
455,Karratha,AU,2020-01-14 02:31:52,-20.74,116.85,Rain,light rain,85.05,80,7,16.62,0.25,0.0
456,Halifax,CA,2020-01-14 02:29:40,44.65,-63.57,Clouds,overcast clouds,27.0,100,90,5.82,0.0,0.0
457,Odweyne,SO,2020-01-14 02:31:52,9.41,45.06,Clear,clear sky,61.74,66,0,10.87,0.0,0.0
458,Ongandjera,NA,2020-01-14 02:31:53,-17.88,15.07,Rain,light rain,69.93,66,38,9.57,1.0,0.0
459,Diyarb Najm,EG,2020-01-14 02:31:53,30.75,31.44,Clouds,overcast clouds,53.6,66,98,6.93,0.0,0.0
460,Millinocket,US,2020-01-14 02:31:53,45.66,-68.71,Rain,light rain,19.99,85,90,1.52,0.0,0.0
461,Axim,GH,2020-01-14 02:31:53,4.87,-2.24,Clear,clear sky,77.38,92,0,2.44,0.0,0.0
462,Miri,MY,2020-01-14 02:31:54,4.41,114.01,Clouds,broken clouds,80.6,94,75,3.36,0.0,0.0
463,Juegang,CN,2020-01-14 02:31:54,32.32,121.19,Clouds,few clouds,46.0,64,19,10.42,0.0,0.0
464,Puerto Escondido,MX,2020-01-14 02:31:54,15.85,-97.07,Clear,clear sky,80.6,74,5,4.12,0.0,0.0
465,Isangel,VU,2020-01-14 02:31:54,-19.55,169.27,Clouds,broken clouds,86.0,66,75,13.87,0.0,0.0
466,Zafra,ES,2020-01-14 02:31:55,38.42,-6.42,Clear,clear sky,39.99,91,1,1.99,0.0,0.0
467,Fukue,JP,2020-01-14 02:31:55,32.69,128.84,Rain,light intensity shower rain,44.6,87,75,4.7,0.0,0.0
468,Parchim,DE,2020-01-14 02:31:55,53.43,11.85,Clouds,broken clouds,39.99,93,75,6.93,0.0,0.0
469,Oranjestad,AW,2020-01-14 02:30:49,12.52,-70.03,Clouds,scattered clouds,80.6,74,40,20.8,0.0,0.0
470,Krasne,UA,2020-01-14 02:31:55,49.91,24.61,Clouds,broken clouds,32.0,85,75,2.24,0.0,0.0
471,Ketchikan,US,2020-01-14 02:31:56,55.34,-131.65,Clear,clear sky,17.6,56,1,6.93,0.0,0.0
472,Setermoen,NO,2020-01-14 02:31:56,68.86,18.35,Clouds,overcast clouds,35.6,69,100,20.8,0.0,0.0
473,Nemuro,JP,2020-01-14 02:31:56,43.32,145.57,Clouds,scattered clouds,28.4,50,40,5.82,0.0,0.0
474,Ballarat,AU,2020-01-14 02:31:04,-37.57,143.85,Clear,clear sky,89.01,29,0,1.99,0.0,0.0
475,Jumla,NP,2020-01-14 02:31:57,29.27,82.18,Snow,snow,33.42,93,98,4.68,0.0,4.25
476,Jagalur,IN,2020-01-14 02:31:57,14.53,76.35,Clouds,broken clouds,70.38,57,78,7.92,0.0,0.0
477,Preston,GB,2020-01-14 02:29:59,53.77,-2.72,Rain,shower rain,44.01,87,20,17.22,0.0,0.0
478,Tete,MZ,2020-01-14 02:31:58,-16.16,33.59,Clouds,broken clouds,75.2,100,75,5.82,0.0,0.0
479,Dalvik,IS,2020-01-14 02:31:58,65.97,-18.53,Snow,light snow,32.0,96,90,21.92,0.0,0.0
480,Nome,US,2020-01-14 02:31:58,64.5,-165.41,Clouds,overcast clouds,19.4,79,90,13.87,0.0,0.0
481,Garowe,SO,2020-01-14 02:31:59,8.41,48.48,Clouds,few clouds,68.54,72,23,8.63,0.0,0.0
482,Senanga,ZM,2020-01-14 02:31:59,-16.12,23.27,Rain,moderate rain,67.42,92,100,2.28,3.25,0.0
483,Karasuk,RU,2020-01-14 02:31:59,53.74,78.04,Clouds,overcast clouds,6.58,91,88,14.61,0.0,0.0
484,Poltavka,RU,2020-01-14 02:32:00,54.37,71.76,Clouds,overcast clouds,17.62,88,100,14.72,0.0,0.0
485,Mayahi,NE,2020-01-14 02:32:00,13.96,7.67,Clouds,overcast clouds,70.32,14,100,12.93,0.0,0.0
486,Comodoro Rivadavia,AR,2020-01-14 02:32:00,-45.87,-67.5,Clear,clear sky,82.4,20,0,18.34,0.0,0.0
487,Lasa,IT,2020-01-14 02:32:00,46.62,10.7,Clear,clear sky,28.0,85,5,2.24,0.0,0.0
488,Chernyshevskiy,RU,2020-01-14 02:32:00,63.01,112.47,Clouds,overcast clouds,-11.97,96,100,4.7,0.0,0.0
489,Nagato,JP,2020-01-14 02:32:01,34.38,131.2,Rain,light rain,46.4,75,75,3.36,0.0,0.0
490,Quatre Cocos,MU,2020-01-14 02:32:01,-20.21,57.76,Clouds,scattered clouds,80.6,88,40,8.05,0.0,0.0
491,Hazleton,US,2020-01-14 02:32:02,40.96,-75.97,Mist,mist,37.4,93,90,2.35,0.0,0.0
492,Salinopolis,BR,2020-01-14 02:32:02,-0.61,-47.36,Clouds,few clouds,81.57,78,17,11.72,0.0,0.0
493,Thanh Hoa,VN,2020-01-14 02:30:11,19.8,105.77,Rain,light rain,73.63,76,98,14.52,0.31,0.0
494,Popondetta,PG,2020-01-14 02:32:02,-8.75,148.25,Rain,light rain,79.7,80,100,2.71,0.75,0.0
495,Fairbanks,US,2020-01-14 02:30:03,64.84,-147.72,Snow,light snow,0.0,84,90,1.23,0.0,0.0
496,Alenquer,BR,2020-01-14 02:32:03,-1.94,-54.74,Clouds,overcast clouds,78.8,83,92,4.7,0.0,0.0
497,Marawi,PH,2020-01-14 02:32:03,8.0,124.29,Rain,light rain,81.0,82,69,5.01,0.94,0.0
498,Poso,ID,2020-01-14 02:32:03,-1.4,120.75,Rain,light rain,75.42,81,26,3.33,0.31,0.0
499,Saint-Leu,RE,2020-01-14 02:32:04,-21.15,55.28,Clouds,overcast clouds,77.0,69,86,6.93,0.0,0.0
500,Chitose,JP,2020-01-14 02:32:04,42.82,141.65,Clouds,scattered clouds,34.0,63,40,1.12,0.0,0.0
501,Terre-De-Bas,GP,2020-01-14 02:32:04,15.85,-61.64,Clouds,few clouds,73.4,83,20,5.82,0.0,0.0
502,Atarfe,ES,2020-01-14 02:32:04,37.22,-3.69,Clear,clear sky,46.99,92,4,1.12,0.0,0.0
503,Pyaozerskiy,RU,2020-01-14 02:32:05,65.83,31.17,Clouds,overcast clouds,28.92,87,94,11.43,0.0,0.0
504,Plettenberg Bay,ZA,2020-01-14 02:32:05,-34.05,23.37,Clouds,scattered clouds,69.1,95,26,5.61,0.0,0.0
505,Acapulco,MX,2020-01-14 02:30:06,16.86,-99.89,Clear,clear sky,82.4,69,5,6.93,0.0,0.0
506,Port Hedland,AU,2020-01-14 02:32:06,-20.32,118.57,Clouds,scattered clouds,93.2,63,40,14.99,0.0,0.0
507,Shimanovsk,RU,2020-01-14 02:32:06,52.0,127.7,Clouds,few clouds,-0.76,89,11,3.38,0.0,0.0
508,Baykit,RU,2020-01-14 02:32:06,61.67,96.37,Clouds,overcast clouds,-10.07,99,100,2.35,0.0,0.0
509,Haibara,JP,2020-01-14 02:32:06,34.53,135.95,Clouds,overcast clouds,52.0,39,100,2.24,0.0,0.0
510,Kashary,RU,2020-01-14 02:32:07,49.04,41.01,Clouds,broken clouds,27.3,95,60,6.17,0.0,0.0
511,Puerto Leguizamo,CO,2020-01-14 02:32:07,-0.19,-74.78,Clouds,overcast clouds,76.77,73,100,2.98,0.0,0.0
512,Kudahuvadhoo,MV,2020-01-14 02:32:07,2.67,72.89,Clouds,overcast clouds,81.21,75,87,15.03,0.0,0.0
513,Tres Pontas,BR,2020-01-14 02:32:08,-21.37,-45.51,Clouds,overcast clouds,66.67,96,100,3.56,0.0,0.0
514,Asau,RO,2020-01-14 02:32:08,46.43,26.4,Clouds,overcast clouds,25.0,100,100,3.36,0.0,0.0
515,Grand-Santi,GF,2020-01-14 02:32:08,4.25,-54.38,Rain,light rain,72.14,99,68,1.5,0.13,0.0
516,Jacareacanga,BR,2020-01-14 02:32:09,-6.22,-57.75,Clear,clear sky,71.33,97,0,0.98,0.0,0.0
517,Matara,LK,2020-01-14 02:30:40,5.95,80.54,Clouds,scattered clouds,77.18,77,50,3.13,0.0,0.0
518,Moron,AR,2020-01-14 02:29:12,-34.65,-58.62,Clear,clear sky,78.01,73,0,13.87,0.0,0.0
519,Kamenka,RU,2020-01-14 02:32:09,51.32,42.77,Clouds,scattered clouds,33.01,95,30,4.0,0.0,0.0
520,Ulaanbaatar,MN,2020-01-14 02:30:34,47.91,106.88,Smoke,smoke,-18.4,68,1,2.24,0.0,0.0
521,Sorong,ID,2020-01-14 02:32:10,-0.88,131.25,Clouds,overcast clouds,92.93,51,86,2.15,0.0,0.0
522,Kapoeta,SS,2020-01-14 02:32:10,4.77,33.59,Clouds,overcast clouds,74.79,29,88,1.28,0.0,0.0
523,Khandbari,NP,2020-01-14 02:32:10,27.37,87.2,Clear,clear sky,46.06,33,0,1.66,0.0,0.0
524,Bolshaya Sosnova,RU,2020-01-14 02:32:10,57.67,54.6,Clouds,overcast clouds,18.72,91,99,11.59,0.0,0.0
525,Matiri,TZ,2020-01-14 02:32:11,-10.75,34.9,Clouds,overcast clouds,61.54,94,100,2.15,0.0,0.0
526,Batemans Bay,AU,2020-01-14 02:32:11,-35.72,150.18,Clear,clear sky,73.99,81,0,4.0,0.0,0.0
527,Belmonte,BR,2020-01-14 02:32:11,-15.86,-38.88,Clear,clear sky,77.0,83,0,4.7,0.0,0.0
528,Sola,VU,2020-01-14 02:32:11,-13.88,167.55,Rain,moderate rain,81.23,86,100,19.08,5.44,0.0
529,Raton,US,2020-01-14 02:32:12,36.9,-104.44,Clear,clear sky,41.0,34,1,10.29,0.0,0.0
530,Sibolga,ID,2020-01-14 02:32:12,1.74,98.78,Rain,light rain,83.46,72,81,1.12,0.38,0.0
531,Yulara,AU,2020-01-14 02:32:12,-25.24,130.99,Clouds,few clouds,104.0,9,17,10.29,0.0,0.0
532,Lubliniec,PL,2020-01-14 02:32:12,50.67,18.68,Clouds,few clouds,33.01,77,20,6.93,0.0,0.0
533,Chak,PK,2020-01-14 02:32:13,27.86,68.83,Fog,fog,44.6,93,0,4.59,0.0,0.0
534,Vila Franca Do Campo,PT,2020-01-14 02:32:13,37.72,-25.43,Rain,light intensity shower rain,60.8,87,40,24.16,0.0,0.0
535,Coahuayana,MX,2020-01-14 02:32:13,18.73,-103.68,Clouds,few clouds,77.0,65,20,1.61,0.0,0.0
536,Sovetskiy,RU,2020-01-14 02:32:14,61.36,63.58,Clouds,broken clouds,14.02,94,56,2.62,0.0,0.0
537,Dwarka,IN,2020-01-14 02:32:14,22.24,68.97,Clouds,scattered clouds,68.86,50,25,8.08,0.0,0.0
538,Khipro,PK,2020-01-14 02:32:14,25.83,69.38,Clear,clear sky,54.46,47,0,1.43,0.0,0.0
539,Radcliff,US,2020-01-14 02:31:55,37.84,-85.95,Clouds,scattered clouds,44.6,93,40,3.36,0.0,0.0
540,Mapiri,BO,2020-01-14 02:32:14,-15.25,-68.17,Rain,light rain,65.62,90,100,1.43,0.56,0.0
541,Sabzevar,IR,2020-01-14 02:28:50,36.21,57.68,Clouds,overcast clouds,32.49,63,92,9.06,0.0,0.0
542,Suntar,RU,2020-01-14 02:32:15,62.14,117.63,Clouds,overcast clouds,-5.15,93,86,4.92,0.0,0.0
543,Ambanja,MG,2020-01-14 02:32:15,-13.68,48.45,Clouds,broken clouds,76.32,85,77,2.73,0.0,0.0
544,Alvand,IR,2020-01-14 02:32:15,36.32,49.17,Snow,light snow,16.12,96,80,6.58,0.0,0.25
545,Shingu,JP,2020-01-14 02:32:16,33.73,135.98,Clouds,broken clouds,48.2,49,75,9.17,0.0,0.0
546,Uruzgan,AF,2020-01-14 02:32:16,32.83,66.0,Clouds,overcast clouds,9.01,82,99,8.88,0.0,0.0
547,Mahanoro,MG,2020-01-14 02:32:16,-19.9,48.8,Rain,moderate rain,80.01,76,46,1.59,3.25,0.0
548,Najran,SA,2020-01-14 02:32:17,17.49,44.13,Clear,clear sky,46.4,49,8,1.95,0.0,0.0
549,Freeport,US,2020-01-14 02:32:17,40.66,-73.58,Clouds,overcast clouds,46.0,87,90,3.36,0.0,0.0
