City_ID,City,Country,Date,Lat,Lng,Overall Weather,Weather Description,Max Temp,Humidity,Cloudiness,Wind Speed,Rain Inches (last 3 hrs),Snow Inches (last 3 hrs)
0,Saint-Philippe,RE,2020-01-14 19:23:20,-21.36,55.77,Rain,light rain,80.6,69,96,6.93,0.38,0.0
1,Cape Town,ZA,2020-01-14 19:23:20,-33.93,18.42,Clouds,few clouds,73.99,94,20,20.8,0.0,0.0
2,Ilo,PE,2020-01-14 19:23:20,-17.64,-71.34,Clouds,scattered clouds,78.8,65,39,10.29,0.0,0.0
3,Flinders,AU,2020-01-14 19:23:21,-34.58,150.86,Clouds,few clouds,66.0,100,17,7.45,0.0,0.0
4,Dubai,AE,2020-01-14 19:19:00,25.26,55.3,Clouds,scattered clouds,66.2,48,40,8.05,0.0,0.0
5,Kapaa,US,2020-01-14 19:21:35,22.08,-159.32,Clouds,overcast clouds,75.2,83,90,16.11,0.0,0.0
6,Luderitz,NA,2020-01-14 19:23:21,-26.65,15.16,Clear,clear sky,69.8,77,0,23.04,0.0,0.0
7,Coahuayana,MX,2020-01-14 19:23:22,18.73,-103.68,Clouds,scattered clouds,84.2,45,40,5.57,0.0,0.0
8,Hamilton,US,2020-01-14 19:23:22,39.18,-84.53,Clouds,overcast clouds,54.0,81,90,5.82,0.0,0.0
9,Ribeira Grande,PT,2020-01-14 19:23:22,38.52,-28.7,Clouds,scattered clouds,55.4,76,40,14.99,0.0,0.0
10,Albany,US,2020-01-14 19:19:33,42.6,-73.97,Clouds,scattered clouds,45.0,69,40,6.93,0.0,0.0
11,Shingu,JP,2020-01-14 19:23:22,33.73,135.98,Rain,light rain,50.77,74,100,11.54,0.31,0.0
12,Puerto Ayora,EC,2020-01-14 19:23:23,-0.74,-90.35,Clouds,few clouds,86.0,62,20,18.34,0.0,0.0
13,Guerrero Negro,MX,2020-01-14 19:23:23,27.98,-114.06,Clouds,overcast clouds,63.34,67,100,9.82,0.0,0.0
14,Bathsheba,BB,2020-01-14 19:23:23,13.22,-59.52,Rain,light intensity shower rain,77.0,83,75,24.16,0.0,0.0
15,Tezu,IN,2020-01-14 19:19:04,27.92,96.17,Clouds,few clouds,58.55,49,22,3.06,0.0,0.0
16,Punta Arenas,CL,2020-01-14 19:20:35,-53.15,-70.92,Clouds,scattered clouds,59.0,49,40,25.28,0.0,0.0
17,Te Anau,NZ,2020-01-14 19:18:48,-45.42,167.72,Clouds,broken clouds,45.81,83,67,0.74,0.0,0.0
18,Tieling,CN,2020-01-14 19:23:24,42.29,123.84,Clear,clear sky,-2.99,92,0,1.03,0.0,0.0
19,Warren,US,2020-01-14 19:22:17,39.43,-84.17,Rain,light rain,53.01,100,90,13.87,0.0,0.0
20,Mingaora,PK,2020-01-14 19:18:26,34.78,72.36,Clear,clear sky,25.93,51,0,10.31,0.0,0.0
21,Laguna,US,2020-01-14 19:23:25,38.42,-121.42,Clear,clear sky,55.0,71,1,8.05,0.0,0.0
22,Vaini,TO,2020-01-14 19:23:25,-21.2,-175.2,Clouds,broken clouds,78.8,88,75,6.93,0.0,0.0
23,Cap Malheureux,MU,2020-01-14 19:23:25,-19.98,57.61,Rain,shower rain,81.0,83,40,4.7,0.0,0.0
24,Ossora,RU,2020-01-14 19:23:25,59.24,163.07,Snow,snow,32.68,98,100,26.24,0.0,7.94
25,Rikitea,PF,2020-01-14 19:23:26,-23.12,-134.97,Clear,clear sky,78.15,79,0,11.45,0.0,0.0
26,Boddam,GB,2020-01-14 19:23:26,57.47,-1.78,Clouds,scattered clouds,39.2,86,40,6.93,0.0,0.0
27,Hilo,US,2020-01-14 19:23:26,19.73,-155.09,Rain,light rain,71.01,97,88,3.0,0.5,0.0
28,Shostka,UA,2020-01-14 19:23:26,51.86,33.47,Clouds,broken clouds,31.84,94,80,5.28,0.0,0.0
29,Artvin,TR,2020-01-14 19:23:27,41.17,41.83,Clouds,overcast clouds,41.0,80,95,10.29,0.0,0.0
30,Hithadhoo,MV,2020-01-14 19:23:27,-0.6,73.08,Rain,moderate rain,81.28,81,47,13.02,3.25,0.0
31,Bethel,US,2020-01-14 19:23:27,41.37,-73.41,Clear,clear sky,45.0,75,1,4.7,0.0,0.0
32,Bredasdorp,ZA,2020-01-14 19:23:27,-34.53,20.04,Clouds,scattered clouds,73.99,83,31,6.93,0.0,0.0
33,Hofn,IS,2020-01-14 19:23:28,64.25,-15.21,Clouds,broken clouds,42.39,74,83,33.33,0.0,0.0
34,Faanui,PF,2020-01-14 19:23:28,-16.48,-151.75,Rain,light rain,81.27,79,91,16.28,0.13,0.0
35,Seymchan,RU,2020-01-14 19:23:28,62.88,152.43,Clouds,overcast clouds,-18.81,95,100,3.58,0.0,0.0
36,Nuuk,GL,2020-01-14 19:23:28,64.18,-51.72,Rain,shower rain,12.2,85,75,3.36,0.0,0.0
37,Tisul,RU,2020-01-14 19:23:29,55.76,88.31,Clouds,overcast clouds,13.62,83,98,11.36,0.0,0.0
38,Nanortalik,GL,2020-01-14 19:23:29,60.14,-45.24,Clouds,broken clouds,20.64,74,64,11.25,0.0,0.0
39,Maiduguri,NG,2020-01-14 19:23:29,11.85,13.16,Clear,clear sky,82.51,15,3,9.6,0.0,0.0
40,Nizhniy Odes,RU,2020-01-14 19:23:29,63.64,54.86,Snow,light snow,10.47,95,100,7.34,0.0,0.56
41,Mogadishu,SO,2020-01-14 19:20:52,2.04,45.34,Clouds,scattered clouds,80.92,81,31,29.15,0.0,0.0
42,Maragogi,BR,2020-01-14 19:21:29,-9.01,-35.22,Rain,light rain,80.62,76,61,12.24,0.13,0.0
43,Cidreira,BR,2020-01-14 19:23:31,-30.18,-50.21,Clouds,few clouds,75.49,81,11,24.72,0.0,0.0
44,Yar-Sale,RU,2020-01-14 19:23:31,66.83,70.83,Clear,clear sky,-11.78,79,6,10.38,0.0,0.0
45,Florence,IT,2020-01-14 19:22:57,43.77,11.25,Clouds,broken clouds,46.0,87,75,3.36,0.0,0.0
46,Mahebourg,MU,2020-01-14 19:23:32,-20.41,57.7,Rain,shower rain,81.0,83,40,4.7,0.0,0.0
47,Walvis Bay,NA,2020-01-14 19:23:32,-22.96,14.51,Clouds,scattered clouds,73.4,60,29,6.93,0.0,0.0
48,Ilebo,CD,2020-01-14 19:23:32,-4.32,20.58,Clouds,few clouds,79.52,61,22,1.99,0.0,0.0
49,Bang Len,TH,2020-01-14 19:19:44,14.02,100.17,Clouds,few clouds,82.99,88,20,4.7,0.0,0.0
50,New Norfolk,AU,2020-01-14 19:23:33,-42.78,147.06,Clouds,overcast clouds,62.6,82,90,5.82,0.0,0.0
51,Chato,TZ,2020-01-14 19:23:33,-2.64,31.77,Clouds,few clouds,73.92,69,14,8.08,0.0,0.0
52,Karratha,AU,2020-01-14 19:23:33,-20.74,116.85,Clouds,broken clouds,84.36,82,52,8.7,0.0,0.0
53,Castro,BR,2020-01-14 19:23:33,-24.79,-50.01,Clouds,overcast clouds,82.45,39,98,1.77,0.0,0.0
54,Mehran,IR,2020-01-14 19:23:34,33.12,46.16,Clear,clear sky,33.8,69,0,4.7,0.0,0.0
55,Sur,OM,2020-01-14 19:23:34,22.57,59.53,Rain,light rain,65.61,63,1,3.67,0.13,0.0
56,Pisco,PE,2020-01-14 19:23:34,-13.7,-76.22,Clouds,broken clouds,73.0,30,75,10.29,0.0,0.0
57,Oakdale,US,2020-01-14 19:21:09,44.96,-92.96,Clouds,overcast clouds,25.0,79,90,11.41,0.0,0.0
58,Hobart,AU,2020-01-14 19:20:11,-42.88,147.33,Clouds,overcast clouds,63.0,82,90,5.82,0.0,0.0
59,Port Alfred,ZA,2020-01-14 19:23:35,-33.59,26.89,Clouds,scattered clouds,73.0,93,26,1.01,0.0,0.0
60,Cockburn Town,TC,2020-01-14 19:23:35,21.46,-71.14,Clouds,scattered clouds,80.6,57,40,13.87,0.0,0.0
61,Vila Velha,BR,2020-01-14 19:23:35,-20.33,-40.29,Clouds,broken clouds,80.6,69,75,13.87,0.0,0.0
62,Ilulissat,GL,2020-01-14 19:23:35,69.22,-51.1,Snow,light shower snow,3.2,65,75,18.34,0.0,0.0
63,Barabash,RU,2020-01-14 19:23:36,43.2,131.48,Clear,clear sky,-5.8,70,0,7.76,0.0,0.0
64,Muscat,OM,2020-01-14 19:23:36,23.61,58.59,Clouds,few clouds,64.4,68,20,5.82,0.0,0.0
65,Bambous Virieux,MU,2020-01-14 19:23:36,-20.34,57.76,Rain,shower rain,81.0,83,40,4.7,0.0,0.0
66,Nemuro,JP,2020-01-14 19:23:36,43.32,145.57,Clear,clear sky,27.03,77,0,11.88,0.0,0.0
67,Saskylakh,RU,2020-01-14 19:23:36,71.92,114.08,Clear,clear sky,-16.35,93,0,15.32,0.0,0.0
68,Viedma,AR,2020-01-14 19:23:37,-40.81,-63.0,Clear,clear sky,88.97,16,0,17.98,0.0,0.0
69,Najran,SA,2020-01-14 19:23:37,17.49,44.13,Clear,clear sky,53.6,32,0,4.7,0.0,0.0
70,Fortuna,US,2020-01-14 19:23:37,40.6,-124.16,Rain,light rain,50.0,87,90,3.36,0.0,0.0
71,Abu Samrah,SY,2020-01-14 19:23:38,35.3,37.18,Clear,clear sky,46.04,54,7,8.34,0.0,0.0
72,Mercedes,AR,2020-01-14 19:23:38,-34.65,-59.43,Clouds,scattered clouds,88.0,69,45,5.99,0.0,0.0
73,Dikson,RU,2020-01-14 19:23:38,73.51,80.55,Clouds,overcast clouds,-10.62,99,97,10.94,0.0,0.0
74,Jamestown,US,2020-01-14 19:22:12,42.1,-79.24,Clouds,few clouds,51.8,65,20,12.75,0.0,0.0
75,Khatanga,RU,2020-01-14 19:23:39,71.97,102.5,Clouds,scattered clouds,-20.07,89,50,5.32,0.0,0.0
76,Poum,NC,2020-01-14 19:23:39,-20.23,164.02,Clouds,overcast clouds,79.93,79,100,21.81,0.0,0.0
77,Ushuaia,AR,2020-01-14 19:23:39,-54.8,-68.3,Rain,shower rain,50.0,71,75,4.7,0.0,0.0
78,Mumford,GH,2020-01-14 19:23:39,5.26,-0.76,Rain,light rain,82.69,69,40,6.98,0.56,0.0
79,Ceres,US,2020-01-14 19:23:40,37.59,-120.96,Rain,light rain,55.0,62,1,10.29,0.56,0.0
80,Tasiilaq,GL,2020-01-14 19:23:40,65.61,-37.64,Clouds,broken clouds,17.6,57,75,3.36,0.0,0.0
81,Hermanus,ZA,2020-01-14 19:19:38,-34.42,19.23,Clear,clear sky,78.01,85,0,4.0,0.0,0.0
82,Bertoua,CM,2020-01-14 19:23:40,4.58,13.68,Clear,clear sky,79.02,28,0,2.13,0.0,0.0
83,Veraval,IN,2020-01-14 19:23:41,20.9,70.37,Clear,clear sky,58.48,72,9,8.86,0.0,0.0
84,Nikolayevka,RU,2020-01-14 19:23:41,53.13,47.2,Clouds,overcast clouds,25.21,93,93,9.08,0.0,0.0
85,East London,ZA,2020-01-14 19:23:41,-33.02,27.91,Clouds,scattered clouds,77.0,88,40,11.41,0.0,0.0
86,Rio Gallegos,AR,2020-01-14 19:21:05,-51.62,-69.22,Clouds,scattered clouds,57.2,47,40,18.34,0.0,0.0
87,Volsk,RU,2020-01-14 19:23:42,52.03,47.38,Clouds,broken clouds,24.78,90,52,6.24,0.0,0.0
88,Vardo,NO,2020-01-14 19:23:42,70.37,31.11,Snow,light shower snow,26.6,73,75,20.8,0.0,0.0
89,Mikhaylovka,RU,2020-01-14 19:23:42,50.06,43.24,Clouds,broken clouds,30.0,91,67,1.54,0.0,0.0
90,Rocha,UY,2020-01-14 19:23:42,-34.48,-54.33,Clouds,scattered clouds,95.29,24,28,13.42,0.0,0.0
91,Mataura,NZ,2020-01-14 19:23:42,-46.19,168.86,Clouds,overcast clouds,51.01,95,92,1.99,0.0,0.0
92,Maniitsoq,GL,2020-01-14 19:23:43,65.42,-52.9,Snow,light snow,8.62,89,100,6.46,0.0,1.06
93,Conde,BR,2020-01-14 19:23:43,-7.26,-34.91,Clouds,few clouds,87.8,43,20,13.87,0.0,0.0
94,Carnarvon,AU,2020-01-14 19:23:43,-24.87,113.63,Rain,light rain,75.52,91,100,4.92,1.56,0.0
95,Butaritari,KI,2020-01-14 19:23:43,3.07,172.79,Clouds,overcast clouds,84.11,79,99,17.31,0.0,0.0
96,Port Elizabeth,ZA,2020-01-14 19:23:44,-33.92,25.57,Clouds,broken clouds,73.4,88,75,14.99,0.0,0.0
97,Aksay,RU,2020-01-14 19:22:41,47.26,39.87,Rain,light rain,33.8,100,90,6.71,0.0,0.0
98,Qaqortoq,GL,2020-01-14 19:23:44,60.72,-46.03,Clouds,broken clouds,12.2,61,75,4.7,0.0,0.0
99,Sangar,RU,2020-01-14 19:23:44,63.92,127.47,Clouds,overcast clouds,-22.81,96,98,3.85,0.0,0.0
100,Busselton,AU,2020-01-14 19:23:45,-33.65,115.33,Clear,clear sky,62.01,44,0,15.64,0.0,0.0
101,Souillac,MU,2020-01-14 19:23:45,-20.52,57.52,Rain,shower rain,81.0,83,40,4.7,0.0,0.0
102,Zhigalovo,RU,2020-01-14 19:23:45,54.81,105.16,Clouds,overcast clouds,-2.6,95,98,1.83,0.0,0.0
103,San Cristobal,VE,2020-01-14 19:23:45,7.77,-72.22,Clouds,scattered clouds,84.2,54,40,12.75,0.0,0.0
104,Chifeng,CN,2020-01-14 19:23:46,42.27,118.96,Clouds,broken clouds,8.46,60,81,3.36,0.0,0.0
105,Oranjestad,AW,2020-01-14 19:23:23,12.52,-70.03,Clouds,few clouds,84.2,66,20,20.8,0.0,0.0
106,Tuktoyaktuk,CA,2020-01-14 19:23:46,69.45,-133.04,Clear,clear sky,-14.8,68,5,8.05,0.0,0.0
107,Innoshima,JP,2020-01-14 19:23:47,34.28,133.18,Clouds,broken clouds,43.0,95,69,4.29,0.0,0.0
108,Mabaruma,GY,2020-01-14 19:23:47,8.2,-59.78,Rain,moderate rain,78.8,92,45,4.41,4.5,0.0
109,Sechura,PE,2020-01-14 19:23:47,-5.56,-80.82,Clouds,broken clouds,69.62,93,51,14.34,0.0,0.0
110,Barrow,US,2020-01-14 19:23:47,71.29,-156.79,Snow,snow,5.0,84,90,27.51,0.0,0.0
111,Tuatapere,NZ,2020-01-14 19:23:48,-46.13,167.68,Clouds,scattered clouds,51.01,95,49,1.99,0.0,0.0
112,Alofi,NU,2020-01-14 19:23:48,-19.06,-169.92,Rain,light rain,75.2,94,99,9.17,2.38,0.0
113,Makaryev,RU,2020-01-14 19:23:48,57.88,43.81,Clouds,overcast clouds,29.59,89,100,8.59,0.0,0.0
114,Vestmanna,FO,2020-01-14 19:23:48,62.16,-7.17,Snow,light snow,39.2,80,94,24.16,0.0,0.5
115,Talcahuano,CL,2020-01-14 19:23:03,-36.72,-73.12,Clear,clear sky,69.8,64,0,21.92,0.0,0.0
116,Udachnyy,RU,2020-01-14 19:23:49,66.42,112.4,Clouds,broken clouds,-13.0,75,52,4.47,0.0,0.0
117,Marawi,PH,2020-01-14 19:23:49,8.0,124.29,Clouds,overcast clouds,75.0,88,93,4.0,0.0,0.0
118,Khani,GE,2020-01-14 19:23:49,41.96,42.96,Clouds,overcast clouds,35.6,55,87,2.24,0.0,0.0
119,Singaraja,ID,2020-01-14 19:23:49,-8.11,115.09,Clear,clear sky,82.72,74,6,2.64,0.0,0.0
120,Charters Towers,AU,2020-01-14 19:23:50,-20.1,146.27,Clouds,few clouds,72.66,95,18,5.88,0.0,0.0
121,Isangel,VU,2020-01-14 19:23:50,-19.55,169.27,Clouds,broken clouds,77.0,88,75,20.51,0.0,0.0
122,Awbari,LY,2020-01-14 19:23:50,26.59,12.78,Clouds,broken clouds,48.04,53,60,8.52,0.0,0.0
123,Montlucon,FR,2020-01-14 19:23:50,46.33,2.6,Clouds,overcast clouds,50.0,65,100,9.44,0.0,0.0
124,Buraydah,SA,2020-01-14 19:23:51,26.33,43.98,Clear,clear sky,50.0,53,0,9.17,0.0,0.0
125,Pangnirtung,CA,2020-01-14 19:23:51,66.15,-65.71,Clouds,scattered clouds,-22.0,67,40,2.46,0.0,0.0
126,Atuona,PF,2020-01-14 19:23:51,-9.8,-139.03,Clear,clear sky,81.43,74,0,20.04,0.0,0.0
127,Leningradskiy,RU,2020-01-14 19:23:51,69.38,178.42,Clear,clear sky,-13.74,71,0,2.26,0.0,0.0
128,Dayong,CN,2020-01-14 19:23:52,25.02,118.29,Clouds,scattered clouds,57.2,76,40,13.42,0.0,0.0
129,Tual,ID,2020-01-14 19:23:52,-5.67,132.75,Rain,light rain,82.9,79,55,10.49,1.62,0.0
130,Itarema,BR,2020-01-14 19:23:52,-2.92,-39.92,Rain,light rain,87.1,60,49,11.05,2.69,0.0
131,Mar Del Plata,AR,2020-01-14 19:20:10,-38.0,-57.56,Clouds,broken clouds,93.99,58,75,16.11,0.0,0.0
132,Qaanaaq,GL,2020-01-14 19:23:52,77.48,-69.36,Clouds,broken clouds,-13.18,59,62,4.34,0.0,0.0
133,Faya,SA,2020-01-14 19:23:53,18.39,42.45,Clear,clear sky,57.2,19,0,11.41,0.0,0.0
134,Sovetskiy,RU,2020-01-14 19:23:53,61.36,63.58,Clouds,overcast clouds,-4.65,82,92,3.62,0.0,0.0
135,Yellowknife,CA,2020-01-14 19:23:53,62.46,-114.35,Mist,mist,-32.8,66,75,2.24,0.0,0.0
136,Adrar,MR,2020-01-14 19:23:53,20.5,-10.07,Clouds,broken clouds,64.56,16,63,10.74,0.0,0.0
137,Goderich,CA,2020-01-14 19:23:54,43.75,-81.72,Clouds,scattered clouds,37.99,92,49,5.01,0.0,0.0
138,Beaverlodge,CA,2020-01-14 19:23:54,55.22,-119.44,Clouds,broken clouds,-25.6,67,75,6.93,0.0,0.0
139,Nantucket,US,2020-01-14 19:23:54,41.28,-70.1,Clouds,overcast clouds,44.6,86,90,6.93,0.0,0.0
140,Thompson,CA,2020-01-14 19:23:55,55.74,-97.86,Snow,light snow,-14.8,68,90,5.82,0.0,0.0
141,Tautira,PF,2020-01-14 19:23:55,-17.73,-149.15,Clouds,broken clouds,84.2,70,75,1.12,0.0,0.0
142,Maceio,BR,2020-01-14 19:23:55,-9.67,-35.74,Clouds,few clouds,87.8,48,20,14.99,0.0,0.0
143,Bhadrachalam,IN,2020-01-14 19:23:55,17.67,80.88,Clear,clear sky,64.94,84,0,5.21,0.0,0.0
144,Batemans Bay,AU,2020-01-14 19:23:55,-35.72,150.18,Clouds,broken clouds,66.99,91,55,2.28,0.0,0.0
145,Mitsamiouli,KM,2020-01-14 19:23:56,-11.38,43.28,Clouds,few clouds,78.8,88,20,5.82,0.0,0.0
146,Torbay,CA,2020-01-14 19:23:56,47.67,-52.73,Snow,light shower snow,18.0,66,40,14.99,0.0,0.0
147,Katsuura,JP,2020-01-14 19:23:56,35.13,140.3,Rain,light intensity shower rain,46.4,93,75,8.05,0.0,0.0
148,Kaitangata,NZ,2020-01-14 19:23:56,-46.28,169.85,Clouds,overcast clouds,55.99,87,94,8.01,0.0,0.0
149,Rundu,NA,2020-01-14 19:23:57,-17.93,19.77,Clouds,broken clouds,78.8,74,66,2.24,0.0,0.0
150,Landeck,AT,2020-01-14 19:23:57,47.13,10.56,Clouds,broken clouds,41.0,57,71,5.82,0.0,0.0
151,Mehendiganj,BD,2020-01-14 19:23:57,22.82,90.53,Clear,clear sky,64.72,64,0,1.97,0.0,0.0
152,Alta Floresta,BR,2020-01-14 19:21:54,-9.88,-56.09,Clouds,scattered clouds,89.6,62,40,4.7,0.0,0.0
153,Bamiantong,CN,2020-01-14 19:23:58,44.93,130.53,Clear,clear sky,-10.26,95,0,3.36,0.0,0.0
154,Saint-Paul,RE,2020-01-14 19:23:58,-21.01,55.27,Rain,light rain,80.6,83,100,10.29,0.44,0.0
155,Cherskiy,RU,2020-01-14 19:23:58,68.75,161.3,Clouds,broken clouds,-16.46,79,60,2.89,0.0,0.0
156,Clyde River,CA,2020-01-14 19:23:59,70.47,-68.59,Clouds,few clouds,-14.8,75,20,6.93,0.0,0.0
157,Saquarema,BR,2020-01-14 19:23:59,-22.92,-42.51,Clouds,scattered clouds,84.2,45,40,8.05,0.0,0.0
158,Kieta,PG,2020-01-14 19:23:59,-6.22,155.63,Clouds,overcast clouds,79.79,79,100,8.41,0.0,0.0
159,Narsaq,GL,2020-01-14 19:24:00,60.92,-46.05,Clouds,broken clouds,12.2,61,75,4.7,0.0,0.0
160,Kichmengskiy Gorodok,RU,2020-01-14 19:24:00,59.98,45.79,Clouds,overcast clouds,29.26,91,98,8.97,0.0,0.0
161,Pitimbu,BR,2020-01-14 19:24:00,-7.47,-34.81,Clouds,few clouds,87.8,43,20,13.87,0.0,0.0
162,Cururupu,BR,2020-01-14 19:19:18,-1.83,-44.87,Rain,moderate rain,81.72,82,82,4.12,3.63,0.0
163,Lebu,CL,2020-01-14 19:24:01,-37.62,-73.65,Clouds,few clouds,66.38,64,22,11.07,0.0,0.0
164,Araquari,BR,2020-01-14 19:24:01,-26.37,-48.72,Clouds,few clouds,84.99,58,20,10.29,0.0,0.0
165,Longyearbyen,SJ,2020-01-14 19:20:05,78.22,15.64,Clouds,few clouds,-2.2,77,21,3.36,0.0,0.0
166,Antofagasta,CL,2020-01-14 19:24:02,-23.65,-70.4,Clouds,scattered clouds,72.0,56,40,14.99,0.0,0.0
167,Brae,GB,2020-01-14 19:24:02,60.4,-1.35,Rain,light rain,44.6,75,65,23.04,0.56,0.0
168,Stepnyak,KZ,2020-01-14 19:20:05,52.83,70.78,Clouds,overcast clouds,21.88,89,100,12.88,0.0,0.0
169,Madison Heights,US,2020-01-14 19:24:02,42.49,-83.11,Rain,light rain,42.01,80,90,10.29,0.0,0.0
170,China,MX,2020-01-14 19:24:03,25.7,-99.23,Clouds,few clouds,81.84,53,23,12.12,0.0,0.0
171,Saint-Pierre,RE,2020-01-14 19:24:03,-21.34,55.48,Rain,light rain,80.6,69,100,6.93,0.13,0.0
172,Sitka,US,2020-01-14 19:24:03,57.05,-135.33,Clouds,few clouds,15.8,47,20,6.93,0.0,0.0
173,Nikolskoye,RU,2020-01-14 19:24:03,59.7,30.79,Clouds,few clouds,36.0,74,20,17.9,0.0,0.0
174,Seydi,TM,2020-01-14 19:24:04,39.48,62.91,Clouds,scattered clouds,31.89,57,29,4.29,0.0,0.0
175,Wonthaggi,AU,2020-01-14 19:24:04,-38.6,145.59,Clear,clear sky,72.0,53,0,4.68,0.0,0.0
176,Avarua,CK,2020-01-14 19:21:30,-21.21,-159.78,Rain,light rain,80.6,78,91,17.22,2.56,0.0
177,Pointe Michel,DM,2020-01-14 19:24:04,15.25,-61.38,Clouds,scattered clouds,82.4,61,40,9.17,0.0,0.0
178,Esperance,AU,2020-01-14 19:24:05,-33.87,121.9,Clouds,overcast clouds,64.4,93,90,11.41,0.0,0.0
179,Kichera,RU,2020-01-14 19:24:05,55.94,110.1,Snow,light snow,-1.14,97,100,0.18,0.0,0.13
180,Ewa Beach,US,2020-01-14 19:24:05,21.32,-158.01,Clouds,broken clouds,77.0,83,75,10.29,0.0,0.0
181,Opuwo,NA,2020-01-14 19:24:05,-18.06,13.84,Clouds,overcast clouds,83.12,41,97,8.01,0.0,0.0
182,Gaziantep,TR,2020-01-14 19:19:19,37.06,37.38,Clear,clear sky,41.0,69,0,1.01,0.0,0.0
183,Mehamn,NO,2020-01-14 19:24:06,71.04,27.85,Snow,light snow,24.8,79,75,10.29,0.0,0.0
184,Yenagoa,NG,2020-01-14 19:24:06,4.92,6.26,Rain,light rain,84.38,68,56,7.9,0.38,0.0
185,Victoria,HK,2020-01-14 19:24:06,22.29,114.16,Clouds,few clouds,66.2,77,20,13.87,0.0,0.0
186,Narrabri,AU,2020-01-14 19:24:07,-30.32,149.78,Clouds,broken clouds,73.4,49,66,2.24,0.0,0.0
187,Barreirinhas,BR,2020-01-14 19:24:07,-2.75,-42.83,Rain,moderate rain,81.61,86,100,4.59,4.19,0.0
188,Gwadar,PK,2020-01-14 19:24:07,25.12,62.33,Clear,clear sky,66.76,41,0,16.78,0.0,0.0
189,Bluff,NZ,2020-01-14 19:24:08,-46.6,168.33,Clouds,scattered clouds,50.0,95,50,3.0,0.0,0.0
190,Pandan,PH,2020-01-14 19:24:08,14.05,124.17,Rain,light rain,80.04,82,34,23.22,1.87,0.0
191,Juneau,US,2020-01-14 19:23:11,58.3,-134.42,Clouds,broken clouds,19.4,48,75,5.82,0.0,0.0
192,Ukiah,US,2020-01-14 19:24:08,39.15,-123.21,Rain,light rain,50.0,81,20,8.84,0.0,0.0
193,Atar,MR,2020-01-14 19:24:08,20.52,-13.05,Clouds,broken clouds,68.74,13,66,9.4,0.0,0.0
194,Biak,ID,2020-01-14 19:24:09,-0.91,122.88,Rain,moderate rain,82.38,76,50,3.96,6.25,0.0
195,Sabya,SA,2020-01-14 19:24:09,17.15,42.63,Clear,clear sky,78.8,74,0,6.93,0.0,0.0
196,Airai,TL,2020-01-14 19:24:09,-8.93,125.41,Clouds,overcast clouds,66.96,89,100,1.48,0.0,0.0
197,Awjilah,LY,2020-01-14 19:24:09,29.11,21.29,Rain,light rain,57.54,61,100,18.7,0.63,0.0
198,Ambilobe,MG,2020-01-14 19:24:10,-13.2,49.05,Rain,light rain,77.7,89,95,4.92,1.63,0.0
199,Tiksi,RU,2020-01-14 19:24:10,71.69,128.87,Clouds,scattered clouds,-15.84,88,30,10.02,0.0,0.0
200,Vilhena,BR,2020-01-14 19:24:10,-12.74,-60.15,Clouds,scattered clouds,86.0,58,40,9.17,0.0,0.0
201,Fort Nelson,CA,2020-01-14 19:24:10,58.81,-122.7,Snow,light snow,-34.6,65,90,0.94,0.0,0.0
202,Klaksvik,FO,2020-01-14 19:24:10,62.23,-6.59,Rain,light rain,39.2,80,97,24.16,0.44,0.0
203,Acapulco,MX,2020-01-14 19:24:11,16.86,-99.89,Clear,clear sky,89.98,41,0,6.24,0.0,0.0
204,Lipin Bor,RU,2020-01-14 19:24:11,60.26,37.98,Clouds,overcast clouds,29.86,87,100,8.77,0.0,0.0
205,Lompoc,US,2020-01-14 19:21:47,34.64,-120.46,Clear,clear sky,63.0,71,1,6.93,0.0,0.0
206,Katherine,AU,2020-01-14 19:24:12,-14.47,132.27,Clouds,broken clouds,77.0,88,80,1.12,0.0,0.0
207,Kahului,US,2020-01-14 19:19:14,20.89,-156.47,Clouds,few clouds,75.2,83,20,28.14,0.0,0.0
208,Salalah,OM,2020-01-14 19:24:12,17.02,54.09,Clear,clear sky,69.8,15,0,6.93,0.0,0.0
209,Georgetown,MY,2020-01-14 19:24:12,5.41,100.34,Clouds,scattered clouds,82.4,78,40,2.24,0.0,0.0
210,Le Port,RE,2020-01-14 19:24:12,-20.94,55.29,Rain,light rain,80.6,83,100,10.29,0.44,0.0
211,Khorixas,NA,2020-01-14 19:24:13,-20.37,14.97,Clouds,broken clouds,88.95,32,69,15.05,0.0,0.0
212,Boa Vista,BR,2020-01-14 19:21:01,2.82,-60.67,Clouds,broken clouds,91.4,43,75,9.17,0.0,0.0
213,Nishihara,JP,2020-01-14 19:24:13,26.18,127.76,Clouds,few clouds,62.6,77,20,16.11,0.0,0.0
214,Quatre Cocos,MU,2020-01-14 19:24:13,-20.21,57.76,Rain,shower rain,81.0,83,40,4.7,0.0,0.0
215,San Policarpo,PH,2020-01-14 19:24:13,12.18,125.51,Rain,light rain,79.54,85,47,9.42,1.69,0.0
216,Oxford,GB,2020-01-14 19:24:02,51.75,-1.26,Rain,light rain,55.4,100,90,23.04,1.69,0.0
217,Aksu,CN,2020-01-14 19:24:14,41.12,80.26,Clouds,overcast clouds,23.23,96,98,3.02,0.0,0.0
218,Berlevag,NO,2020-01-14 19:24:14,70.86,29.09,Snow,light snow,24.8,79,75,10.29,0.0,0.0
219,Pevek,RU,2020-01-14 19:24:14,69.7,170.31,Clear,clear sky,-15.77,83,0,5.32,0.0,0.0
220,Coquimbo,CL,2020-01-14 19:24:15,-29.95,-71.34,Clouds,few clouds,68.0,64,20,11.41,0.0,0.0
221,Bilma,NE,2020-01-14 19:24:15,18.69,12.92,Clear,clear sky,64.06,25,1,13.47,0.0,0.0
222,Hohhot,CN,2020-01-14 19:24:15,40.81,111.65,Clear,clear sky,-5.8,76,0,4.47,0.0,0.0
223,Caravelas,BR,2020-01-14 19:24:15,-17.71,-39.25,Clouds,broken clouds,80.69,69,64,6.87,0.0,0.0
224,Nizwa,OM,2020-01-14 19:24:15,22.93,57.53,Clear,clear sky,54.9,64,0,3.06,0.0,0.0
225,Chokurdakh,RU,2020-01-14 19:24:37,70.63,147.92,Snow,light snow,-17.75,98,100,1.95,0.0,0.19
226,Yarkovo,RU,2020-01-14 19:24:37,57.4,67.08,Snow,light snow,16.95,96,98,4.7,0.0,0.19
227,Lazaro Cardenas,MX,2020-01-14 19:24:37,17.96,-102.2,Clouds,scattered clouds,90.1,49,25,2.08,0.0,0.0
228,Carbondale,US,2020-01-14 19:21:13,37.73,-89.22,Clear,clear sky,55.99,76,1,2.15,0.0,0.0
229,Kidal,ML,2020-01-14 19:24:38,18.44,1.41,Clear,clear sky,63.9,14,0,12.08,0.0,0.0
230,Codrington,AU,2020-01-14 19:24:38,-38.27,141.97,Clear,clear sky,67.77,71,0,6.38,0.0,0.0
231,Kavieng,PG,2020-01-14 19:24:38,-2.57,150.8,Rain,light rain,83.8,76,100,23.38,1.31,0.0
232,Roma,US,2020-01-14 19:24:38,43.21,-75.46,Clouds,broken clouds,46.99,65,75,10.29,0.0,0.0
233,Corinto,GR,2020-01-14 19:24:38,37.94,22.96,Clouds,few clouds,52.0,87,20,3.36,0.0,0.0
234,Jacareacanga,BR,2020-01-14 19:24:39,-6.22,-57.75,Clouds,few clouds,93.2,56,20,3.36,0.0,0.0
235,Matamoros,MX,2020-01-14 19:24:39,25.53,-103.25,Clouds,broken clouds,73.0,31,78,1.99,0.0,0.0
236,Ketchikan,US,2020-01-14 19:21:04,55.34,-131.65,Clear,clear sky,15.8,65,1,9.17,0.0,0.0
237,Owando,CG,2020-01-14 19:24:39,-0.48,15.9,Clouds,scattered clouds,81.64,55,38,2.44,0.0,0.0
238,Khorramshahr,IR,2020-01-14 19:24:40,30.44,48.17,Clear,clear sky,53.6,66,0,4.7,0.0,0.0
239,Lashio,MM,2020-01-14 19:24:40,22.93,97.75,Clear,clear sky,52.7,78,0,1.5,0.0,0.0
240,Upernavik,GL,2020-01-14 19:24:40,72.79,-56.15,Clouds,overcast clouds,-4.68,65,94,4.45,0.0,0.0
241,Port Lincoln,AU,2020-01-14 19:24:40,-34.73,135.87,Clouds,broken clouds,61.41,86,71,13.85,0.0,0.0
242,Mastic Beach,US,2020-01-14 19:24:41,40.77,-72.85,Clouds,broken clouds,46.4,70,75,6.93,0.0,0.0
243,Port Hardy,CA,2020-01-14 19:24:41,50.7,-127.42,Snow,light snow,21.2,73,75,4.7,0.0,0.0
244,Mizdah,LY,2020-01-14 19:24:41,31.45,12.98,Clouds,overcast clouds,50.67,78,90,13.91,0.0,0.0
245,Acarau,BR,2020-01-14 19:24:41,-2.89,-40.12,Rain,light rain,87.1,60,49,11.05,2.69,0.0
246,Napoleon,US,2020-01-14 19:24:42,41.39,-84.13,Mist,mist,43.0,100,90,14.99,0.0,0.0
247,Kerman,IR,2020-01-14 19:24:42,30.28,57.08,Clouds,broken clouds,32.0,69,75,11.41,0.0,0.0
248,Betul,IN,2020-01-14 19:24:42,21.92,77.9,Clear,clear sky,62.58,49,0,3.42,0.0,0.0
249,Khandyga,RU,2020-01-14 19:24:42,62.67,135.6,Clouds,overcast clouds,-28.03,100,86,1.14,0.0,0.0
250,Ati,TD,2020-01-14 19:24:42,13.22,18.34,Clear,clear sky,76.48,13,0,5.79,0.0,0.0
251,Okahandja,NA,2020-01-14 19:24:43,-21.98,16.92,Clouds,broken clouds,82.4,28,78,8.05,0.0,0.0
252,Byron Bay,AU,2020-01-14 19:24:43,-28.65,153.62,Clouds,overcast clouds,72.0,94,90,2.62,0.0,0.0
253,Sept-Iles,CA,2020-01-14 19:24:22,50.2,-66.38,Clouds,scattered clouds,10.0,42,40,4.7,0.0,0.0
254,Chuy,UY,2020-01-14 19:24:43,-33.7,-53.46,Clouds,few clouds,85.19,47,22,10.42,0.0,0.0
255,Iqaluit,CA,2020-01-14 19:24:44,63.75,-68.51,Clouds,broken clouds,-22.0,61,75,6.93,0.0,0.0
256,Urucara,BR,2020-01-14 19:24:44,-2.54,-57.76,Clouds,broken clouds,89.33,53,80,1.99,0.0,0.0
257,Ostrovnoy,RU,2020-01-14 19:24:44,68.05,39.51,Snow,light snow,21.67,93,100,5.82,0.0,0.13
258,Sorong,ID,2020-01-14 19:24:44,-0.88,131.25,Clouds,scattered clouds,73.78,98,26,2.06,0.0,0.0
259,Dicabisagan,PH,2020-01-14 19:24:44,17.08,122.42,Rain,light rain,73.81,85,93,11.41,2.38,0.0
260,Flin Flon,CA,2020-01-14 19:24:45,54.77,-101.86,Snow,light snow,-7.6,69,90,4.7,0.0,0.0
261,Hovd,MN,2020-01-14 19:24:45,48.01,91.64,Clouds,broken clouds,-6.32,92,53,0.98,0.0,0.0
262,Talnakh,RU,2020-01-14 19:24:45,69.49,88.4,Snow,light shower snow,-0.4,84,40,20.13,0.0,0.0
263,Coldingham,GB,2020-01-14 19:24:45,55.89,-2.16,Rain,light rain,39.2,93,100,5.82,0.56,0.0
264,Kavaratti,IN,2020-01-14 19:24:46,10.57,72.64,Clouds,overcast clouds,81.46,65,100,6.49,0.0,0.0
265,Puerto Escondido,MX,2020-01-14 19:24:46,15.85,-97.07,Clear,clear sky,91.4,30,0,3.15,0.0,0.0
266,Togur,RU,2020-01-14 19:24:46,58.36,82.83,Snow,light snow,14.83,93,100,10.4,0.0,0.75
267,Wanning,CN,2020-01-14 19:24:47,18.8,110.4,Rain,light rain,68.34,84,17,6.51,0.13,0.0
268,Mandera,KE,2020-01-14 19:24:47,3.94,41.87,Clouds,broken clouds,81.0,22,81,10.65,0.0,0.0
269,Arman,RU,2020-01-14 19:24:47,59.7,150.17,Clear,clear sky,-5.39,92,5,15.41,0.0,0.0
270,Camapua,BR,2020-01-14 19:24:47,-19.53,-54.04,Clouds,scattered clouds,88.25,55,50,5.64,0.0,0.0
271,Kisiwani,TZ,2020-01-14 19:24:48,-4.13,37.95,Rain,light rain,70.56,90,41,4.29,0.81,0.0
272,Inuvik,CA,2020-01-14 19:24:48,68.35,-133.72,Clouds,few clouds,-16.6,75,20,4.7,0.0,0.0
273,Saldanha,ZA,2020-01-14 19:24:48,-33.01,17.94,Clouds,few clouds,71.6,78,21,11.41,0.0,0.0
274,Bengkulu,ID,2020-01-14 19:20:18,-3.8,102.27,Rain,light rain,73.33,92,91,3.47,1.75,0.0
275,Touros,BR,2020-01-14 19:24:48,-5.2,-35.46,Clouds,few clouds,87.8,55,20,14.99,0.0,0.0
276,Mecca,SA,2020-01-14 19:21:03,21.43,39.83,Clear,clear sky,70.57,22,0,3.22,0.0,0.0
277,Otatitlan,MX,2020-01-14 19:24:49,18.2,-96.03,Rain,light rain,80.01,86,25,3.0,0.19,0.0
278,Gerzat,FR,2020-01-14 19:24:49,45.82,3.14,Clouds,overcast clouds,50.0,66,98,21.92,0.0,0.0
279,Provideniya,RU,2020-01-14 19:24:49,64.38,-173.3,Snow,light snow,22.37,97,100,6.55,0.0,0.38
280,Ayan,RU,2020-01-14 19:24:50,56.45,138.17,Clouds,overcast clouds,-3.55,74,100,9.28,0.0,0.0
281,Westport,US,2020-01-14 19:24:50,41.14,-73.36,Clouds,overcast clouds,46.4,61,90,8.05,0.0,0.0
282,Hope,US,2020-01-14 19:23:37,33.67,-93.59,Clouds,overcast clouds,60.01,93,90,4.7,0.0,0.0
283,Sioux Lookout,CA,2020-01-14 19:24:50,50.1,-91.92,Snow,light snow,21.2,85,90,11.41,0.0,0.0
284,Olinda,BR,2020-01-14 19:24:51,-8.01,-34.86,Clouds,scattered clouds,86.0,62,40,11.41,0.0,0.0
285,Arraial Do Cabo,BR,2020-01-14 19:24:51,-22.97,-42.03,Clouds,overcast clouds,84.2,54,94,9.17,0.0,0.0
286,Kodiak,US,2020-01-14 19:24:51,57.79,-152.41,Clear,clear sky,30.2,50,1,11.41,0.0,0.0
287,Grong,NO,2020-01-14 19:24:51,64.47,12.31,Clouds,few clouds,41.0,80,20,5.82,0.0,0.0
288,Petropavlovsk-Kamchatskiy,RU,2020-01-14 19:24:52,53.05,158.65,Clouds,overcast clouds,28.4,54,85,17.9,0.0,0.0
289,Ancud,CL,2020-01-14 19:24:52,-41.87,-73.82,Clouds,scattered clouds,59.0,51,40,17.22,0.0,0.0
290,Les Cayes,HT,2020-01-14 19:24:52,18.2,-73.75,Clear,clear sky,79.5,64,0,2.15,0.0,0.0
291,Coolum Beach,AU,2020-01-14 19:24:52,-26.53,153.1,Clouds,broken clouds,70.0,95,57,3.0,0.0,0.0
292,Nacozari,MX,2020-01-14 19:24:53,25.34,-108.26,Clouds,broken clouds,78.01,55,76,3.0,0.0,0.0
293,Port Blair,IN,2020-01-14 19:24:53,11.67,92.75,Clouds,few clouds,79.07,80,15,12.75,0.0,0.0
294,Hasaki,JP,2020-01-14 19:24:53,35.73,140.83,Rain,shower rain,45.0,93,75,1.12,0.0,0.0
295,Nsanje,MW,2020-01-14 19:24:53,-16.92,35.26,Rain,light rain,74.86,91,97,5.32,0.25,0.0
296,Aguada De Pasajeros,CU,2020-01-14 19:24:53,22.39,-80.85,Clouds,few clouds,87.8,45,20,10.29,0.0,0.0
297,Vysokogornyy,RU,2020-01-14 19:24:54,50.12,139.15,Clouds,overcast clouds,-16.01,100,100,2.24,0.0,0.0
298,Severo-Kurilsk,RU,2020-01-14 19:24:54,50.68,156.12,Snow,light snow,17.94,84,92,25.64,0.0,0.38
299,Wattegama,LK,2020-01-14 19:24:54,6.8,81.48,Clouds,broken clouds,73.4,88,72,6.93,0.0,0.0
300,Yuzhou,CN,2020-01-14 19:24:55,34.16,113.46,Haze,haze,30.2,63,32,6.71,0.0,0.0
301,San Quintin,MX,2020-01-14 19:24:55,30.48,-115.95,Clouds,broken clouds,59.63,73,63,12.53,0.0,0.0
302,Korla,CN,2020-01-14 19:24:55,41.76,86.15,Snow,light snow,33.01,90,100,5.01,0.0,0.5
303,Lenine,UA,2020-01-14 19:24:55,45.3,35.78,Clouds,overcast clouds,42.26,79,100,3.36,0.0,0.0
304,Severnoye,RU,2020-01-14 19:24:55,56.35,78.36,Snow,light snow,17.35,93,100,10.54,0.0,0.5
305,Bafra,TR,2020-01-14 19:24:56,41.57,35.91,Clouds,overcast clouds,44.6,75,100,4.7,0.0,0.0
306,Bambanglipuro,ID,2020-01-14 19:24:56,-7.95,110.28,Rain,light rain,74.93,90,91,2.04,0.13,0.0
307,Ahipara,NZ,2020-01-14 19:24:56,-35.17,173.17,Rain,light rain,62.01,100,57,8.75,0.56,0.0
308,Matadi,CD,2020-01-14 19:24:57,-5.82,13.45,Clouds,overcast clouds,81.36,72,100,3.06,0.0,0.0
309,Berdigestyakh,RU,2020-01-14 19:23:42,62.1,126.7,Clouds,overcast clouds,-7.87,97,92,3.31,0.0,0.0
310,Mount Isa,AU,2020-01-14 19:24:57,-20.73,139.5,Clear,clear sky,75.2,78,2,11.86,0.0,0.0
311,Bom Jesus,BR,2020-01-14 19:24:01,-9.07,-44.36,Clouds,broken clouds,91.47,41,66,4.43,0.0,0.0
312,Vao,NC,2020-01-14 19:24:58,-22.67,167.48,Rain,light rain,77.18,85,64,20.13,0.44,0.0
313,Sao Filipe,CV,2020-01-14 19:24:58,14.9,-24.5,Clouds,overcast clouds,71.11,68,99,14.61,0.0,0.0
314,Saint Anthony,US,2020-01-14 19:24:58,45.02,-93.22,Clouds,overcast clouds,26.01,73,90,10.29,0.0,0.0
315,Honiara,SB,2020-01-14 19:24:58,-9.43,159.95,Rain,shower rain,80.6,88,75,10.29,0.0,0.0
316,Tromso,NO,2020-01-14 19:21:10,69.65,18.96,Clouds,overcast clouds,33.8,69,100,17.22,0.0,0.0
317,Sola,VU,2020-01-14 19:24:59,-13.88,167.55,Clouds,overcast clouds,80.6,94,90,5.82,0.0,0.0
318,Mbaiki,CF,2020-01-14 19:24:59,3.87,17.99,Clear,clear sky,80.6,29,0,1.92,0.0,0.0
319,Sicuani,PE,2020-01-14 19:24:59,-14.27,-71.23,Rain,light rain,48.88,63,89,4.16,1.81,0.0
320,Avera,US,2020-01-14 19:24:59,33.19,-82.53,Rain,light rain,73.4,93,90,5.82,1.81,0.0
321,Sao Joao Da Barra,BR,2020-01-14 19:24:59,-21.64,-41.05,Clouds,broken clouds,82.4,51,75,9.17,0.0,0.0
322,Broome,US,2020-01-14 19:25:00,42.25,-75.83,Clouds,overcast clouds,46.0,75,90,13.87,0.0,0.0
323,Arrecife,ES,2020-01-14 19:25:00,28.96,-13.55,Clear,clear sky,66.2,55,0,11.41,0.0,0.0
324,Batticaloa,LK,2020-01-14 19:25:00,7.71,81.69,Clouds,broken clouds,67.98,84,60,2.64,0.0,0.0
325,Kununurra,AU,2020-01-14 19:25:00,-15.77,128.73,Clouds,scattered clouds,82.4,83,40,5.82,0.0,0.0
326,Mount Darwin,ZW,2020-01-14 19:25:01,-16.77,31.58,Rain,light rain,68.49,96,88,5.97,0.94,0.0
327,Omsukchan,RU,2020-01-14 19:25:01,62.53,155.8,Snow,light snow,-14.84,99,100,12.03,0.0,1.19
328,Warangal,IN,2020-01-14 19:25:01,18.0,79.58,Clear,clear sky,68.67,68,0,6.29,0.0,0.0
329,Jati,PK,2020-01-14 19:24:04,24.35,68.27,Clear,clear sky,57.7,33,0,8.63,0.0,0.0
330,Sinnamary,GF,2020-01-14 19:25:02,5.38,-52.95,Rain,light rain,80.08,82,37,17.67,0.37,0.0
331,Pedernales,DO,2020-01-14 19:25:02,18.04,-71.74,Clouds,broken clouds,84.2,58,75,13.87,0.0,0.0
332,Banda Aceh,ID,2020-01-14 19:25:02,5.56,95.32,Clear,clear sky,72.1,95,0,5.99,0.0,0.0
333,Tefe,BR,2020-01-14 19:25:02,-3.35,-64.71,Clouds,broken clouds,87.8,66,75,5.82,0.0,0.0
334,Shihezi,CN,2020-01-14 19:25:03,44.3,86.03,Snow,light snow,15.06,96,100,1.88,0.0,0.31
335,Lukulu,ZM,2020-01-14 19:25:03,-14.37,23.24,Clouds,overcast clouds,72.28,77,100,3.31,0.0,0.0
336,Paoua,CF,2020-01-14 19:25:03,7.24,16.44,Clear,clear sky,78.24,14,0,3.62,0.0,0.0
337,Vani,GE,2020-01-14 19:25:03,42.08,42.52,Clouds,overcast clouds,35.6,61,97,2.24,0.0,0.0
338,Japura,ID,2020-01-14 19:25:03,-0.32,102.35,Rain,light rain,73.9,96,74,2.59,0.19,0.0
339,Jesus Carranza,MX,2020-01-14 19:25:04,17.43,-95.03,Rain,light rain,79.99,77,54,10.83,0.63,0.0
340,Houma,US,2020-01-14 19:24:58,29.6,-90.72,Clouds,broken clouds,80.6,78,75,6.93,0.0,0.0
341,Nouadhibou,MR,2020-01-14 19:25:04,20.93,-17.03,Clouds,overcast clouds,71.6,21,100,5.82,0.0,0.0
342,Indiana,US,2020-01-14 19:25:04,40.0,-86.25,Clouds,overcast clouds,46.0,100,90,11.41,0.0,0.0
343,Broken Hill,AU,2020-01-14 19:25:05,-31.95,141.43,Clouds,few clouds,84.2,23,18,12.75,0.0,0.0
344,Henties Bay,NA,2020-01-14 19:25:05,-22.12,14.28,Clear,clear sky,66.0,88,5,3.0,0.0,0.0
345,Catuday,PH,2020-01-14 19:25:05,16.29,119.81,Clear,clear sky,79.36,77,0,11.81,0.0,0.0
346,Sittingbourne,GB,2020-01-14 19:21:04,51.34,0.73,Rain,light rain,55.4,93,75,33.33,0.0,0.0
347,Dumbea,NC,2020-01-14 19:25:06,-22.15,166.45,Clouds,few clouds,79.0,88,20,6.93,0.0,0.0
348,North Bend,US,2020-01-14 19:25:06,43.41,-124.22,Rain,light rain,42.8,70,75,11.41,0.0,0.0
349,Huilong,CN,2020-01-14 19:25:06,31.81,121.66,Clouds,few clouds,39.99,76,18,7.29,0.0,0.0
350,Rudnogorsk,RU,2020-01-14 19:25:06,57.26,103.75,Clouds,overcast clouds,1.76,97,94,3.38,0.0,0.0
351,Sabang,ID,2020-01-14 19:25:07,5.89,95.32,Clear,clear sky,82.15,75,1,17.63,0.0,0.0
352,Umarizal,BR,2020-01-14 19:25:07,-5.99,-37.81,Clouds,scattered clouds,93.45,36,39,3.18,0.0,0.0
353,Krasnyy Chikoy,RU,2020-01-14 19:25:07,50.36,108.75,Clouds,overcast clouds,-5.76,98,100,1.21,0.0,0.0
354,Ponta Do Sol,PT,2020-01-14 19:25:07,32.67,-17.1,Rain,light intensity shower rain,64.4,77,40,9.17,0.0,0.0
355,Saint-Augustin,CA,2020-01-14 19:25:08,51.23,-58.65,Clear,clear sky,8.8,72,0,16.82,0.0,0.0
356,Betafo,MG,2020-01-14 19:25:08,-19.83,46.85,Rain,moderate rain,62.55,92,95,4.45,7.12,0.0
357,Wanaka,NZ,2020-01-14 19:25:08,-44.7,169.15,Clouds,overcast clouds,54.0,74,96,0.94,0.0,0.0
358,Skaerbaek,DK,2020-01-14 19:25:09,55.16,8.77,Rain,light rain,48.2,93,75,18.34,0.0,0.0
359,Riobamba,EC,2020-01-14 19:25:09,-1.67,-78.63,Clouds,broken clouds,69.8,49,75,11.41,0.0,0.0
360,Itupiranga,BR,2020-01-14 19:25:09,-5.13,-49.33,Clouds,broken clouds,80.6,88,75,4.03,0.0,0.0
361,Kirsanov,RU,2020-01-14 19:25:09,52.65,42.72,Clouds,overcast clouds,26.4,96,100,4.88,0.0,0.0
362,Saint-Leu,RE,2020-01-14 19:25:10,-21.15,55.28,Rain,light rain,80.6,69,100,6.93,0.44,0.0
363,Altamira,BR,2020-01-14 19:25:10,-3.2,-52.21,Clouds,scattered clouds,82.4,78,40,5.82,0.0,0.0
364,Moshenskoye,RU,2020-01-14 19:25:10,58.51,34.59,Clouds,overcast clouds,30.9,86,100,7.27,0.0,0.0
365,Swift Current,CA,2020-01-14 19:22:13,50.28,-107.8,Clouds,overcast clouds,-18.4,68,90,8.05,0.0,0.0
366,Asau,RO,2020-01-14 19:25:11,46.43,26.4,Clouds,broken clouds,32.0,100,75,6.93,0.0,0.0
367,Dingle,PH,2020-01-14 19:25:11,11.0,122.67,Clouds,scattered clouds,74.14,92,42,10.74,0.0,0.0
368,Zapolyarnyy,RU,2020-01-14 19:25:11,69.42,30.81,Clouds,broken clouds,24.8,92,75,16.11,0.0,0.0
369,Kiama,AU,2020-01-14 19:25:11,-34.68,150.87,Clouds,few clouds,66.0,100,17,7.45,0.0,0.0
370,Ciucea,RO,2020-01-14 19:25:11,46.95,22.82,Mist,mist,25.0,92,90,3.36,0.0,0.0
371,Norman Wells,CA,2020-01-14 19:25:12,65.28,-126.83,Clouds,few clouds,-38.2,72,20,2.24,0.0,0.0
372,Makaha,US,2020-01-14 19:25:12,21.47,-158.22,Clouds,broken clouds,77.0,83,75,10.29,0.0,0.0
373,Trujillo,PE,2020-01-14 19:25:08,-8.12,-79.03,Clouds,scattered clouds,71.6,78,40,9.17,0.0,0.0
374,San Giorgio Ionico,IT,2020-01-14 19:25:12,40.46,17.38,Clouds,broken clouds,53.01,87,52,3.36,0.0,0.0
375,Denizli,TR,2020-01-14 19:25:13,37.84,29.07,Clouds,few clouds,35.6,80,14,4.7,0.0,0.0
376,Frederico Westphalen,BR,2020-01-14 19:20:33,-27.36,-53.39,Clouds,overcast clouds,82.99,84,100,7.72,0.0,0.0
377,Dharmanagar,IN,2020-01-14 19:25:13,24.37,92.17,Clear,clear sky,59.86,78,0,2.62,0.0,0.0
378,Lakselv,NO,2020-01-14 19:25:14,70.05,24.97,Clouds,broken clouds,26.6,85,75,26.4,0.0,0.0
379,Floriano,BR,2020-01-14 19:21:26,-6.77,-43.02,Rain,light rain,86.7,65,52,3.76,1.0,0.0
380,Kattivakkam,IN,2020-01-14 19:25:14,13.22,80.32,Haze,haze,78.01,73,40,11.88,0.0,0.0
381,Taoudenni,ML,2020-01-14 19:25:14,22.68,-3.98,Clouds,few clouds,63.36,18,17,11.1,0.0,0.0
382,Paamiut,GL,2020-01-14 19:25:14,61.99,-49.67,Clear,clear sky,13.64,67,0,22.59,0.0,0.0
383,Xining,CN,2020-01-14 19:25:15,36.62,101.77,Clouds,overcast clouds,17.73,70,100,1.83,0.0,0.0
384,Chegutu,ZW,2020-01-14 19:25:15,-18.13,30.14,Rain,moderate rain,70.14,86,72,6.4,4.06,0.0
385,Alyangula,AU,2020-01-14 19:25:15,-13.85,136.42,Clouds,scattered clouds,77.0,100,40,3.36,0.0,0.0
386,Susanville,US,2020-01-14 19:25:15,40.42,-120.65,Clouds,broken clouds,37.4,59,75,13.87,0.0,0.0
387,Povenets,RU,2020-01-14 19:25:16,62.85,34.83,Clouds,overcast clouds,28.35,92,100,10.18,0.0,0.0
388,West Odessa,US,2020-01-14 19:25:16,31.84,-102.5,Clear,clear sky,75.2,24,1,5.82,0.0,0.0
389,Lorengau,PG,2020-01-14 19:25:16,-2.02,147.27,Clouds,overcast clouds,83.53,78,100,20.42,0.0,0.0
390,Chicama,PE,2020-01-14 19:25:16,-7.84,-79.15,Clouds,scattered clouds,71.6,78,40,9.17,0.0,0.0
391,San Patricio,MX,2020-01-14 19:25:17,19.22,-104.7,Clouds,overcast clouds,81.14,72,100,10.42,0.0,0.0
392,Haguenau,FR,2020-01-14 19:25:17,48.82,7.79,Clouds,overcast clouds,53.6,66,100,6.93,0.0,0.0
393,Mana,GF,2020-01-14 19:25:17,5.66,-53.78,Rain,light rain,87.01,59,29,7.27,0.88,0.0
394,Salekhard,RU,2020-01-14 19:25:17,66.53,66.6,Clouds,overcast clouds,-3.14,85,98,11.77,0.0,0.0
395,Wilmington,US,2020-01-14 19:23:31,34.23,-77.94,Rain,light rain,77.0,83,1,9.17,0.0,0.0
396,Bonthe,SL,2020-01-14 19:25:18,7.53,-12.51,Clear,clear sky,82.36,73,0,11.72,0.0,0.0
397,Tiruchchendur,IN,2020-01-14 19:25:18,8.48,78.12,Clouds,overcast clouds,75.43,74,87,9.75,0.0,0.0
398,Saint George,US,2020-01-14 19:25:18,37.1,-113.58,Clear,clear sky,51.8,52,1,3.36,0.0,0.0
399,Wajima,JP,2020-01-14 19:25:19,37.4,136.9,Rain,moderate rain,44.35,87,100,12.86,4.94,0.0
400,Hidalgo,MX,2020-01-14 19:25:19,20.5,-99.0,Clouds,broken clouds,62.96,61,65,4.5,0.0,0.0
401,Soe,ID,2020-01-14 19:25:19,-9.86,124.28,Rain,light rain,75.72,88,100,4.47,0.44,0.0
402,Okhotsk,RU,2020-01-14 19:25:19,59.38,143.3,Clear,clear sky,-18.0,71,0,12.08,0.0,0.0
403,Shimoda,JP,2020-01-14 19:25:19,34.67,138.95,Rain,heavy intensity rain,44.01,98,100,9.4,12.5,0.0
404,Manta,EC,2020-01-14 19:25:20,-0.95,-80.73,Clouds,broken clouds,80.6,78,75,3.36,0.0,0.0
405,Gazalkent,UZ,2020-01-14 19:25:20,41.56,69.77,Mist,mist,32.0,53,90,2.24,0.0,0.0
406,Sahuaripa,MX,2020-01-14 19:25:20,29.05,-109.23,Clouds,overcast clouds,69.03,19,100,2.37,0.0,0.0
407,Carutapera,BR,2020-01-14 19:25:20,-1.2,-46.02,Rain,moderate rain,82.04,74,47,11.9,3.69,0.0
408,Geraldton,AU,2020-01-14 19:25:21,-28.77,114.6,Clouds,overcast clouds,71.6,83,90,14.99,0.0,0.0
409,Portage,US,2020-01-14 19:25:21,41.17,-81.2,Clouds,scattered clouds,54.0,66,40,10.29,0.0,0.0
410,Bowen,AU,2020-01-14 19:25:21,-20.02,148.23,Clouds,broken clouds,75.2,94,75,4.7,0.0,0.0
411,Kijang,KR,2020-01-14 19:25:21,35.24,129.21,Clear,clear sky,32.0,53,0,4.7,0.0,0.0
412,Salym,RU,2020-01-14 19:25:21,60.06,71.48,Snow,light snow,15.33,96,92,3.36,0.0,0.19
413,Madera,US,2020-01-14 19:25:22,37.17,-119.83,Clouds,overcast clouds,52.0,70,90,3.36,0.0,0.0
414,Kirakira,SB,2020-01-14 19:25:22,-10.45,161.92,Clouds,overcast clouds,78.13,87,100,6.11,0.0,0.0
415,Taltal,CL,2020-01-14 19:25:22,-25.4,-70.48,Clouds,broken clouds,67.17,66,70,7.4,0.0,0.0
416,Sobolevo,RU,2020-01-14 19:25:23,54.43,31.9,Clouds,scattered clouds,29.48,96,46,7.27,0.0,0.0
417,High Level,CA,2020-01-14 19:25:23,58.52,-117.14,Clouds,broken clouds,-22.0,67,75,12.75,0.0,0.0
418,Kovur,IN,2020-01-14 19:25:23,14.48,79.98,Clear,clear sky,69.44,74,0,3.58,0.0,0.0
419,Naze,JP,2020-01-14 19:25:23,28.37,129.48,Clouds,overcast clouds,60.8,67,90,14.99,0.0,0.0
420,Bandarbeyla,SO,2020-01-14 19:25:24,9.49,50.81,Clear,clear sky,75.7,69,0,26.8,0.0,0.0
421,Tura,IN,2020-01-14 19:25:24,25.52,90.22,Clear,clear sky,61.39,69,0,2.06,0.0,0.0
422,Turochak,RU,2020-01-14 19:25:24,52.26,87.12,Clouds,overcast clouds,11.28,91,99,3.18,0.0,0.0
423,Bokoro,TD,2020-01-14 19:25:24,12.38,17.06,Clear,clear sky,78.71,8,0,6.11,0.0,0.0
424,Necochea,AR,2020-01-14 19:25:24,-38.55,-58.74,Clouds,few clouds,86.0,57,18,8.99,0.0,0.0
425,Nizhniy Kuranakh,RU,2020-01-14 19:25:25,58.84,125.49,Clouds,scattered clouds,-11.79,96,30,2.8,0.0,0.0
426,Dom Pedro,BR,2020-01-14 19:25:25,-4.48,-44.45,Rain,moderate rain,84.42,83,66,0.98,5.56,0.0
427,Mandalgovi,MN,2020-01-14 19:25:25,45.76,106.27,Clouds,scattered clouds,3.02,63,37,6.76,0.0,0.0
428,Zeya,RU,2020-01-14 19:25:25,53.75,127.27,Clouds,few clouds,-20.13,99,17,2.62,0.0,0.0
429,Lyaskelya,RU,2020-01-14 19:25:26,61.77,31.02,Clouds,overcast clouds,32.72,88,100,11.63,0.0,0.0
430,Kiruna,SE,2020-01-14 19:23:33,67.86,20.23,Snow,light snow,17.6,92,90,4.7,0.0,0.0
431,The Valley,AI,2020-01-14 19:25:26,18.22,-63.06,Clouds,few clouds,81.0,73,20,19.46,0.0,0.0
432,Oktyabrskiy,RU,2020-01-14 19:25:26,54.48,53.47,Clouds,broken clouds,16.39,94,53,5.55,0.0,0.0
433,Bosaso,SO,2020-01-14 19:25:26,11.28,49.18,Clouds,broken clouds,75.74,63,55,12.15,0.0,0.0
434,Husavik,IS,2020-01-14 19:25:27,66.04,-17.34,Clouds,overcast clouds,33.8,98,90,55.25,0.0,0.0
435,Cabedelo,BR,2020-01-14 19:25:27,-6.98,-34.83,Clouds,few clouds,87.8,43,20,13.87,0.0,0.0
436,Santa Cruz,BO,2020-01-14 19:21:09,-17.8,-63.17,Clouds,broken clouds,87.8,62,75,14.99,0.0,0.0
437,Ubauro,PK,2020-01-14 19:25:28,28.17,69.73,Clear,clear sky,53.73,67,0,10.85,0.0,0.0
438,Ust-Koksa,RU,2020-01-14 19:25:28,50.27,85.61,Clouds,scattered clouds,0.37,95,29,8.12,0.0,0.0
439,Hongjiang,CN,2020-01-14 19:25:28,27.11,110.0,Rain,light rain,39.27,93,96,3.51,0.44,0.0
440,Nome,US,2020-01-14 19:23:16,64.5,-165.41,Clouds,overcast clouds,21.2,85,90,6.93,0.0,0.0
441,Baykit,RU,2020-01-14 19:25:28,61.67,96.37,Snow,light snow,2.57,97,100,3.4,0.0,0.44
442,Komsomolskiy,UZ,2020-01-14 19:25:29,40.43,71.72,Mist,mist,32.0,84,90,2.24,0.0,0.0
443,Ahuimanu,US,2020-01-14 19:25:29,21.44,-157.84,Clouds,overcast clouds,77.0,73,90,11.41,0.0,0.0
444,Denpasar,ID,2020-01-14 19:25:29,-8.65,115.22,Clouds,scattered clouds,80.6,100,40,3.36,0.0,0.0
445,Richards Bay,ZA,2020-01-14 19:25:29,-28.78,32.04,Clouds,scattered clouds,79.9,78,39,12.35,0.0,0.0
446,Pajapan,MX,2020-01-14 19:25:29,18.25,-94.7,Rain,light rain,79.29,78,30,10.4,0.19,0.0
447,Kemi,FI,2020-01-14 19:25:30,65.74,24.56,Snow,snow,32.0,98,90,19.46,0.0,0.0
448,Ponta Delgada,PT,2020-01-14 19:20:49,37.73,-25.67,Clouds,scattered clouds,57.2,71,40,6.93,0.0,0.0
449,Bereznehuvate,UA,2020-01-14 19:25:30,47.31,32.85,Clouds,scattered clouds,34.03,85,45,1.41,0.0,0.0
450,Calama,CL,2020-01-14 19:25:30,-22.47,-68.93,Clouds,few clouds,77.0,16,20,26.4,0.0,0.0
451,Ileza,RU,2020-01-14 19:25:31,61.05,43.9,Snow,light snow,31.59,91,95,8.37,0.0,0.12
452,Selimpasa,TR,2020-01-14 19:25:31,41.06,28.38,Clouds,few clouds,46.4,75,20,4.7,0.0,0.0
453,Chernyshevskiy,RU,2020-01-14 19:25:31,63.01,112.47,Clouds,overcast clouds,-13.67,98,92,6.06,0.0,0.0
454,Mugur-Aksy,RU,2020-01-14 19:25:31,50.35,90.5,Clouds,few clouds,-6.93,81,11,5.3,0.0,0.0
455,Pochutla,MX,2020-01-14 19:25:32,15.74,-96.47,Clear,clear sky,81.36,69,0,7.81,0.0,0.0
456,Gao,ML,2020-01-14 19:25:32,16.64,1.64,Clear,clear sky,69.42,11,0,13.27,0.0,0.0
457,Marquette,US,2020-01-14 19:25:32,46.53,-87.63,Clouds,overcast clouds,35.01,89,90,12.75,0.0,0.0
458,Vanavara,RU,2020-01-14 19:25:32,60.34,102.28,Clouds,overcast clouds,-0.06,98,100,4.99,0.0,0.0
459,Rancho Palos Verdes,US,2020-01-14 19:25:33,33.74,-118.39,Clear,clear sky,62.01,67,1,8.05,0.0,0.0
460,Rawlins,US,2020-01-14 19:25:33,41.79,-107.24,Snow,light snow,32.0,58,1,34.45,0.0,0.0
461,Beringovskiy,RU,2020-01-14 19:25:33,63.05,179.32,Clouds,overcast clouds,29.37,89,100,13.71,0.0,0.0
462,Springdale,US,2020-01-14 19:20:37,36.19,-94.13,Clouds,overcast clouds,57.2,81,90,10.29,0.0,0.0
463,Kokstad,ZA,2020-01-14 19:25:33,-30.55,29.42,Rain,light rain,59.68,98,27,3.44,0.38,0.0
464,Champua,IN,2020-01-14 19:25:34,22.08,85.67,Clear,clear sky,60.91,50,0,1.72,0.0,0.0
465,Lata,PT,2020-01-14 19:25:34,40.16,-8.33,Clouds,broken clouds,55.99,87,75,10.29,0.0,0.0
466,Bushehr,IR,2020-01-14 19:25:34,28.97,50.84,Clear,clear sky,59.0,58,2,13.87,0.0,0.0
467,Houston,US,2020-01-14 19:24:14,29.76,-95.36,Rain,moderate rain,78.01,83,90,5.82,0.0,0.0
468,Vostok,RU,2020-01-14 19:25:35,46.49,135.88,Clouds,few clouds,-11.52,93,15,2.57,0.0,0.0
469,Bayan,CN,2020-01-14 19:25:35,46.08,127.4,Clear,clear sky,-12.8,96,0,1.5,0.0,0.0
470,Masuguru,TZ,2020-01-14 19:25:35,-11.37,38.42,Rain,moderate rain,75.72,96,100,6.67,6.75,0.0
471,Nkhotakota,MW,2020-01-14 19:25:35,-12.93,34.3,Clouds,overcast clouds,81.57,66,100,4.68,0.0,0.0
472,Hualmay,PE,2020-01-14 19:25:36,-11.1,-77.61,Clouds,few clouds,78.1,58,19,11.32,0.0,0.0
473,Mangai,CD,2020-01-14 19:25:36,-4.05,19.53,Clouds,few clouds,80.15,58,23,1.66,0.0,0.0
474,Qui Nhon,VN,2020-01-14 19:25:36,13.77,109.23,Clear,clear sky,63.34,87,1,3.42,0.0,0.0
475,Enterprise,US,2020-01-14 19:23:55,36.03,-115.24,Clouds,few clouds,50.0,49,20,1.07,0.0,0.0
476,Bairiki,KI,2020-01-14 19:25:37,1.33,172.98,Clouds,broken clouds,82.4,83,75,5.82,0.0,0.0
477,Ostersund,SE,2020-01-14 19:25:37,63.18,14.64,Clouds,overcast clouds,35.6,80,100,12.75,0.0,0.0
478,Lamar,US,2020-01-14 19:25:37,33.67,-95.58,Clouds,overcast clouds,60.01,82,90,8.05,0.0,0.0
479,Gizo,SB,2020-01-14 19:25:04,-8.1,156.84,Rain,moderate rain,77.45,90,100,15.52,3.5,0.0
480,Ixtapa,MX,2020-01-14 19:25:37,20.7,-105.2,Clouds,overcast clouds,81.0,68,100,4.0,0.0,0.0
481,Lumphat,KH,2020-01-14 19:25:38,13.49,106.98,Clear,clear sky,66.15,77,0,7.76,0.0,0.0
482,Ulladulla,AU,2020-01-14 19:25:38,-35.35,150.47,Clear,clear sky,62.6,100,3,5.68,0.0,0.0
483,Benghazi,LY,2020-01-14 19:22:16,32.12,20.07,Rain,moderate rain,56.32,82,100,13.42,5.94,0.0
484,Suchindram,IN,2020-01-14 19:25:38,8.15,77.48,Clouds,broken clouds,78.39,75,83,18.39,0.0,0.0
485,Sarkand,KZ,2020-01-14 19:25:38,45.41,79.92,Clouds,overcast clouds,16.36,85,87,3.0,0.0,0.0
486,Eirunepe,BR,2020-01-14 19:25:34,-6.66,-69.87,Clouds,overcast clouds,80.62,71,98,3.87,0.0,0.0
487,Riyadh,SA,2020-01-14 19:25:39,24.69,46.72,Dust,dust,51.8,29,0,10.29,0.0,0.0
488,Kalmunai,LK,2020-01-14 19:25:39,7.42,81.82,Clouds,broken clouds,79.59,65,80,11.36,0.0,0.0
489,Chapais,CA,2020-01-14 19:25:40,49.78,-74.85,Clear,clear sky,1.4,84,1,5.82,0.0,0.0
490,Shawnee,US,2020-01-14 19:25:40,39.05,-95.77,Clear,clear sky,50.0,70,1,10.29,0.0,0.0
491,Manono,CD,2020-01-14 19:25:40,-7.3,27.42,Rain,light rain,71.13,94,36,2.73,0.31,0.0
492,Yakeshi,CN,2020-01-14 19:25:40,49.28,120.73,Clouds,few clouds,-19.44,100,22,2.64,0.0,0.0
493,Maple Creek,CA,2020-01-14 19:25:40,49.92,-109.48,Clouds,overcast clouds,-13.56,78,99,4.68,0.0,0.0
494,Tanout,NE,2020-01-14 19:25:41,14.97,8.89,Clear,clear sky,69.62,21,3,15.37,0.0,0.0
495,Port Macquarie,AU,2020-01-14 19:25:41,-31.43,152.92,Clouds,broken clouds,70.0,93,75,3.65,0.0,0.0
496,Matara,LK,2020-01-14 19:25:41,5.95,80.54,Clouds,broken clouds,73.29,87,83,3.0,0.0,0.0
497,Beroroha,MG,2020-01-14 19:25:41,-21.67,45.17,Rain,moderate rain,74.55,89,49,7.65,5.31,0.0
498,Guarapari,BR,2020-01-14 19:25:41,-20.67,-40.5,Clouds,broken clouds,80.6,69,75,13.87,0.0,0.0
499,Lebedinyy,RU,2020-01-14 19:25:42,58.52,125.52,Clear,clear sky,-4.86,79,1,6.31,0.0,0.0
500,Mount Gambier,AU,2020-01-14 19:25:42,-37.83,140.77,Clouds,overcast clouds,60.8,93,90,14.99,0.0,0.0
501,Qabaqcol,AZ,2020-01-14 19:25:42,41.72,46.26,Clouds,few clouds,37.4,69,20,11.41,0.0,0.0
502,Mazyr,BY,2020-01-14 19:25:43,52.05,29.25,Clouds,broken clouds,34.29,91,55,5.26,0.0,0.0
503,Ulu-Telyak,RU,2020-01-14 19:25:43,54.91,56.97,Snow,light snow,9.99,97,99,3.27,0.0,0.13
504,Christchurch,NZ,2020-01-14 19:20:43,-43.53,172.63,Clouds,overcast clouds,55.0,100,88,1.12,0.0,0.0
505,Cayenne,GF,2020-01-14 19:23:04,4.93,-52.33,Clouds,broken clouds,80.6,83,75,11.41,0.0,0.0
506,Coihaique,CL,2020-01-14 19:25:43,-45.58,-72.07,Rain,light intensity shower rain,53.6,62,90,9.17,0.0,0.0
507,Kostino,RU,2020-01-14 19:25:44,58.91,53.27,Clouds,overcast clouds,17.65,96,100,5.39,0.0,0.0
508,Porbandar,IN,2020-01-14 19:25:44,21.64,69.61,Clouds,broken clouds,69.1,59,61,10.38,0.0,0.0
509,Gat,IL,2020-01-14 19:25:44,31.61,34.76,Clouds,scattered clouds,59.0,62,37,4.7,0.0,0.0
510,Waingapu,ID,2020-01-14 19:25:44,-9.66,120.26,Clouds,overcast clouds,82.92,72,100,2.91,0.0,0.0
511,Kralendijk,BQ,2020-01-14 19:24:59,12.15,-68.27,Clouds,scattered clouds,84.2,66,40,18.34,0.0,0.0
512,Cairns,AU,2020-01-14 19:22:16,-16.92,145.77,Rain,light intensity shower rain,77.0,94,75,6.93,0.0,0.0
513,Chadiza,ZM,2020-01-14 19:25:45,-14.07,32.44,Rain,moderate rain,69.12,94,100,2.24,3.94,0.0
514,Woodward,US,2020-01-14 19:20:55,36.43,-99.39,Clear,clear sky,53.6,34,1,6.93,0.0,0.0
515,Ust-Kuyga,RU,2020-01-14 19:25:45,70.02,135.6,Clear,clear sky,-30.1,90,0,6.71,0.0,0.0
516,Malm,NO,2020-01-14 19:25:46,64.07,11.22,Clouds,few clouds,43.0,80,20,5.82,0.0,0.0
517,Cabo San Lucas,MX,2020-01-14 19:20:51,22.89,-109.91,Clouds,overcast clouds,81.0,36,90,3.36,0.0,0.0
518,Bonavista,CA,2020-01-14 19:25:46,48.65,-53.11,Clouds,overcast clouds,17.01,75,100,8.99,0.0,0.0
519,Kamogawa,JP,2020-01-14 19:25:46,35.1,140.1,Rain,light intensity shower rain,46.4,93,75,8.05,0.0,0.0
520,Sao Miguel Do Araguaia,BR,2020-01-14 19:25:47,-13.28,-50.16,Clouds,overcast clouds,89.31,58,93,3.31,0.0,0.0
521,Trindade,BR,2020-01-14 19:25:47,-16.65,-49.49,Clouds,broken clouds,86.0,48,75,3.36,0.0,0.0
522,Sorland,NO,2020-01-14 19:25:47,67.67,12.69,Rain,shower rain,37.4,93,75,19.46,0.0,0.0
523,Gunjur,GM,2020-01-14 19:25:47,13.2,-16.73,Clouds,broken clouds,86.0,25,75,9.17,0.0,0.0
524,Puerto Leguizamo,CO,2020-01-14 19:25:48,-0.19,-74.78,Rain,light rain,87.31,59,70,1.95,0.56,0.0
525,Ijui,BR,2020-01-14 19:25:48,-28.39,-53.91,Clouds,few clouds,89.6,59,20,5.82,0.0,0.0
526,Tera,NE,2020-01-14 19:25:48,14.01,0.75,Clear,clear sky,77.38,13,0,9.55,0.0,0.0
527,Kunda,IN,2020-01-14 19:25:48,25.72,81.52,Clouds,few clouds,58.8,62,11,3.31,0.0,0.0
528,Odweyne,SO,2020-01-14 19:25:48,9.41,45.06,Clear,clear sky,64.76,69,0,10.8,0.0,0.0
529,Sawai Madhopur,IN,2020-01-14 19:25:49,25.98,76.37,Clouds,scattered clouds,59.72,67,42,6.24,0.0,0.0
530,Palauig,PH,2020-01-14 19:25:49,15.44,119.9,Clear,clear sky,71.78,79,0,3.76,0.0,0.0
531,Shubarshi,KZ,2020-01-14 19:25:49,48.59,57.19,Clouds,overcast clouds,24.8,92,95,15.68,0.0,0.0
532,Labuhan,ID,2020-01-14 19:25:49,-6.88,112.21,Clouds,overcast clouds,76.03,91,100,2.35,0.0,0.0
533,Chiredzi,ZW,2020-01-14 19:25:50,-21.05,31.67,Clouds,broken clouds,80.19,54,70,4.65,0.0,0.0
534,Santa Cruz De Tenerife,ES,2020-01-14 19:25:50,28.47,-16.25,Clouds,few clouds,66.2,81,20,5.82,0.0,0.0
535,Alibag,IN,2020-01-14 19:25:50,18.64,72.88,Smoke,smoke,75.2,47,0,6.93,0.0,0.0
536,Pizarro,CO,2020-01-14 19:25:50,4.95,-77.37,Clouds,few clouds,81.68,79,19,5.1,0.0,0.0
537,Horta,PT,2020-01-14 19:25:50,38.53,-28.63,Clouds,scattered clouds,55.4,76,40,14.99,0.0,0.0
538,Lianzhou,CN,2020-01-14 19:25:51,24.78,112.38,Rain,light rain,44.78,89,100,2.71,0.44,0.0
539,Tilichiki,RU,2020-01-14 19:25:51,60.47,166.1,Snow,snow,31.87,94,100,32.39,0.0,2.62
540,Samarai,PG,2020-01-14 19:25:52,-10.62,150.67,Clouds,overcast clouds,76.21,88,100,5.55,0.0,0.0
541,Namatanai,PG,2020-01-14 19:25:52,-3.67,152.43,Rain,moderate rain,82.8,77,100,16.17,3.31,0.0
542,Caluquembe,AO,2020-01-14 19:25:52,-13.78,14.68,Rain,moderate rain,63.55,97,96,5.61,6.0,0.0
543,Vaitape,PF,2020-01-14 19:25:52,-16.52,-151.75,Rain,light rain,81.27,79,91,16.28,0.13,0.0
544,Prince Rupert,CA,2020-01-14 19:21:03,54.32,-130.32,Clear,clear sky,8.6,84,1,8.34,0.0,0.0
545,Pozoblanco,ES,2020-01-14 19:25:53,38.38,-4.85,Clouds,overcast clouds,50.0,76,91,1.12,0.0,0.0
546,Sisimiut,GL,2020-01-14 19:25:53,66.94,-53.67,Snow,light snow,-0.44,95,62,12.5,0.0,0.56
547,Lagoa,PT,2020-01-14 19:25:53,39.05,-27.98,Clear,clear sky,57.43,63,0,17.38,0.0,0.0
548,Ranong,TH,2020-01-14 19:25:53,9.97,98.63,Clear,clear sky,77.83,81,0,5.93,0.0,0.0
549,Arlit,NE,2020-01-14 19:25:54,18.74,7.39,Clear,clear sky,65.82,17,0,15.28,0.0,0.0
550,Sakakah,SA,2020-01-14 19:25:54,29.97,40.21,Clouds,broken clouds,48.2,24,51,4.7,0.0,0.0
551,Ekibastuz,KZ,2020-01-14 19:25:54,51.67,75.37,Clouds,overcast clouds,19.08,84,100,20.71,0.0,0.0
552,Syumsi,RU,2020-01-14 19:25:55,57.11,51.61,Snow,light snow,25.39,95,97,7.36,0.0,0.13
553,Port Moresby,PG,2020-01-14 19:25:19,-9.44,147.18,Clouds,overcast clouds,79.47,77,100,12.39,0.0,0.0
554,Grand Gaube,MU,2020-01-14 19:25:55,-20.01,57.66,Rain,shower rain,81.0,83,40,4.7,0.0,0.0
555,Baran,IN,2020-01-14 19:25:55,25.1,76.52,Clouds,broken clouds,62.44,67,77,8.1,0.0,0.0
556,Ciudad Bolivar,VE,2020-01-14 19:25:55,8.12,-63.55,Clouds,broken clouds,90.05,42,51,8.77,0.0,0.0
557,Valparaiso,CL,2020-01-14 19:25:56,-33.04,-71.63,Clouds,scattered clouds,69.8,60,31,6.93,0.0,0.0
558,Tadine,NC,2020-01-14 19:25:56,-21.55,167.88,Rain,light rain,75.42,86,37,11.43,0.13,0.0
559,Anadyr,RU,2020-01-14 19:25:56,64.75,177.48,Clouds,overcast clouds,28.4,79,100,24.61,0.0,0.0
560,Soyo,AO,2020-01-14 19:25:56,-6.13,12.37,Clouds,few clouds,86.0,74,20,6.93,0.0,0.0
561,Belaya Gora,RU,2020-01-14 19:25:57,68.53,146.42,Snow,light snow,-18.51,98,100,0.74,0.0,0.12
562,Guadalupe Victoria,MX,2020-01-14 19:25:57,32.29,-115.11,Clouds,few clouds,63.0,36,20,5.82,0.0,0.0
563,Dunedin,NZ,2020-01-14 19:25:57,-45.87,170.5,Clouds,overcast clouds,55.99,84,100,13.0,0.0,0.0
564,Roald,NO,2020-01-14 19:25:57,62.58,6.13,Clouds,scattered clouds,42.01,75,40,13.87,0.0,0.0
565,Nicosia,CY,2020-01-14 19:25:58,35.17,33.37,Clouds,scattered clouds,52.0,87,40,3.36,0.0,0.0
566,Natal,BR,2020-01-14 19:24:23,-5.79,-35.21,Clouds,few clouds,87.8,62,20,16.11,0.0,0.0
567,Trinidad,BO,2020-01-14 19:25:58,-14.83,-64.9,Thunderstorm,thunderstorm,78.8,94,75,4.7,0.0,0.0
568,Marsh Harbour,BS,2020-01-14 19:25:58,26.54,-77.06,Clear,clear sky,74.07,72,1,15.14,0.0,0.0
569,Tabou,CI,2020-01-14 19:25:58,4.42,-7.35,Clouds,few clouds,83.01,70,18,5.91,0.0,0.0
570,Mackenzie,CA,2020-01-14 19:25:59,55.3,-123.17,Clouds,overcast clouds,-18.4,75,90,3.36,0.0,0.0
571,Raymondville,US,2020-01-14 19:25:59,26.48,-97.78,Clouds,scattered clouds,84.99,54,40,13.87,0.0,0.0
